{
  "uspace_parking": [
    {
      "id": "0015ccb1-cb69-43c0-9acc-bf67a95c7386",
      "name": "USPACE富邦金融中心",
      "lat": 25.03839,
      "lon": 121.55182,
      "city": "台北市",
      "district": "大安區",
      "address": "USPACE富邦金融中心台北市仁愛路四段169號",
      "space_number": 91,
      "day_rate": 80.0,
      "night_rate": 0,
      "monthly_rate": 0,
      "source": "uspace",
      "building_type": "luckypa",
      "financial_class": "uspace_owned"
    },
    {
      "id": "00dcd775-49b5-4996-9022-440c69f5302e",
      "name": "洛碁大飯店南港館",
      "lat": 25.0523268,
      "lon": 121.6115069,
      "city": "台北市",
      "district": "南港區",
      "address": "洛碁大飯店南港館台北市忠孝東路七段528號",
      "space_number": 44,
      "day_rate": 40.0,
      "night_rate": 0,
      "monthly_rate": 0,
      "source": "uspace",
      "building_type": "luckypa",
      "financial_class": "uspace_owned"
    },
    {
      "id": "00ddb63e-85eb-4a05-8824-cc4e7894249a",
      "name": "南京吉林路鄰近車位",
      "lat": 25.051078,
      "lon": 121.529661,
      "city": "台北市",
      "district": "中山區",
      "address": "南京吉林路鄰近車位台北市吉林路22巷3號",
      "space_number": 2,
      "day_rate": 50.0,
      "night_rate": 0,
      "monthly_rate": 0,
      "source": "uspace",
      "building_type": "supernode",
      "financial_class": "uspace_owned"
    },
    {
      "id": "01354e84-aa92-4926-aa94-dd54f95dfaed",
      "name": "長榮醫院鄰近車位",
      "lat": 24.965752,
      "lon": 121.257326,
      "city": "桃園市",
      "district": "中壢區",
      "address": "長榮醫院鄰近車位桃園市陸光六街8號",
      "space_number": 1,
      "day_rate": 15.0,
      "night_rate": 0,
      "monthly_rate": 0,
      "source": "uspace",
      "building_type": "lock",
      "financial_class": "uspace_owned"
    },
    {
      "id": "014e457e-be46-4daf-a445-36b3929cac3f",
      "name": "成功國宅車位(和平東路三段)",
      "lat": 25.0276671,
      "lon": 121.5468152,
      "city": "台北市",
      "district": "大安區",
      "address": "成功國宅車位(和平東路三段)台北市和平東路三段1巷72弄60號",
      "space_number": 10,
      "day_rate": 60.0,
      "night_rate": 20.0,
      "monthly_rate": 0,
      "source": "uspace",
      "building_type": "supernode",
      "financial_class": "uspace_owned"
    },
    {
      "id": "015466fe-da7e-49c5-9351-5c2b8e049c2c",
      "name": "三重大智街精華車位",
      "lat": 25.07027,
      "lon": 121.491244,
      "city": "新北市",
      "district": "三重區",
      "address": "三重大智街精華車位新北市大智街123號",
      "space_number": 4,
      "day_rate": 32.857142857142854,
      "night_rate": 10.0,
      "monthly_rate": 0,
      "source": "uspace",
      "building_type": "subway",
      "financial_class": "uspace_owned"
    },
    {
      "id": "018a731a-efd1-4a37-ab4f-0f58486c7e0c",
      "name": "市民大道四段精華車位",
      "lat": 25.0445541,
      "lon": 121.5532142,
      "city": "台北市",
      "district": "松山區",
      "address": "市民大道四段精華車位台北市市民大道四段215號",
      "space_number": 10,
      "day_rate": 50.0,
      "night_rate": 0,
      "monthly_rate": 0,
      "source": "uspace",
      "building_type": "supernode",
      "financial_class": "uspace_owned"
    },
    {
      "id": "01f48c6a-a043-42e3-8e9a-af14a9ba9a58",
      "name": "南京復興鄰近車位2.0",
      "lat": 25.052428,
      "lon": 121.545885,
      "city": "台北市",
      "district": "松山區",
      "address": "南京復興鄰近車位2.0台北市南京東路三段303巷3弄6號",
      "space_number": 3,
      "day_rate": 50.0,
      "night_rate": 0,
      "monthly_rate": 0,
      "source": "uspace",
      "building_type": "lock",
      "financial_class": "uspace_owned"
    },
    {
      "id": "0223b7fe-84c9-4fb3-aa27-6465be5d53b8",
      "name": "崇明五街",
      "lat": 22.9799078,
      "lon": 120.2167691,
      "city": "台南市",
      "district": "東區",
      "address": "崇明五街台南市崇明五街43號",
      "space_number": 0,
      "day_rate": 0,
      "night_rate": 0,
      "monthly_rate": 0,
      "source": "uspace",
      "building_type": "lock",
      "financial_class": "uspace_owned"
    },
    {
      "id": "027b0afa-c416-4d05-b05f-7d8c34567558",
      "name": "麗車坊中央路站",
      "lat": 23.996989,
      "lon": 121.595521,
      "city": "花蓮縣",
      "district": "花蓮市",
      "address": "麗車坊中央路站花蓮縣中央路四段54號",
      "space_number": 2,
      "day_rate": 20.0,
      "night_rate": 0,
      "monthly_rate": 0,
      "source": "uspace",
      "building_type": "supernode",
      "financial_class": "uspace_owned"
    },
    {
      "id": "028a928c-9959-49af-841e-c7fb32cddff4",
      "name": "紘緯南屯德順車位(柵欄外)",
      "lat": 24.1348333,
      "lon": 120.6554832,
      "city": "台中市",
      "district": "南屯區",
      "address": "紘緯南屯德順車位(柵欄外)台中市南屯路二段1-1號旁",
      "space_number": 2,
      "day_rate": 0,
      "night_rate": 0,
      "monthly_rate": 0,
      "source": "uspace",
      "building_type": "lock",
      "financial_class": "agent_owned"
    },
    {
      "id": "02baefbd-1be4-4912-a96d-d246d427a34f",
      "name": "捷運松江南京站鄰近車位",
      "lat": 25.0533027,
      "lon": 121.5322652,
      "city": "台北市",
      "district": "中山區",
      "address": "捷運松江南京站鄰近車位台北市松江路140巷3號",
      "space_number": 1,
      "day_rate": 50.0,
      "night_rate": 10.0,
      "monthly_rate": 0,
      "source": "uspace",
      "building_type": "lock",
      "financial_class": "uspace_owned"
    },
    {
      "id": "02c83223-363c-41b4-b2b8-de95a8b6c23b",
      "name": "桃園火車站機車場",
      "lat": 24.98840720855,
      "lon": 121.31537664332,
      "city": "桃園市",
      "district": "桃園區",
      "address": "桃園火車站機車場桃園市吉林路38號",
      "space_number": 2,
      "day_rate": 10.0,
      "night_rate": 0,
      "monthly_rate": 0,
      "source": "uspace",
      "building_type": "subway",
      "financial_class": "uspace_owned"
    },
    {
      "id": "031086ea-17c9-4830-aad9-cfbba2b48fb9",
      "name": "芝玉路車位",
      "lat": 25.110059354581,
      "lon": 121.53433570696,
      "city": "台北市",
      "district": "士林區",
      "address": "芝玉路車位台北市芝玉路二段83號",
      "space_number": 4,
      "day_rate": 0,
      "night_rate": 0,
      "monthly_rate": 0,
      "source": "uspace",
      "building_type": "lock",
      "financial_class": "uspace_owned"
    },
    {
      "id": "032baa73-13de-4c5e-96b4-baa586d0c552",
      "name": "行政院鄰近車位",
      "lat": 25.046728,
      "lon": 121.519898,
      "city": "台北市",
      "district": "中山區",
      "address": "行政院鄰近車位台北市中山北路一段26巷",
      "space_number": 1,
      "day_rate": 50.0,
      "night_rate": 0,
      "monthly_rate": 0,
      "source": "uspace",
      "building_type": "lock",
      "financial_class": "uspace_owned"
    },
    {
      "id": "03fb0284-41bc-409e-8a68-f3410c97ebe3",
      "name": "松山工農精華車位",
      "lat": 25.03983,
      "lon": 121.571272,
      "city": "台北市",
      "district": "信義區",
      "address": "松山工農精華車位台北市忠孝東路五段236巷20弄10號",
      "space_number": 5,
      "day_rate": 30.0,
      "night_rate": 0,
      "monthly_rate": 0,
      "source": "uspace",
      "building_type": "supernode",
      "financial_class": "uspace_owned"
    },
    {
      "id": "04511c16-c414-4b86-9553-f1ccc14c651c",
      "name": "Ocean city 海洋都心(機車區)",
      "lat": 25.196952,
      "lon": 121.438899,
      "city": "新北市",
      "district": "淡水區",
      "address": "Ocean city 海洋都心(機車區)新北市義山路二段291號",
      "space_number": 1,
      "day_rate": 20.0,
      "night_rate": 0,
      "monthly_rate": 0,
      "source": "uspace",
      "building_type": "luckypa",
      "financial_class": "uspace_owned"
    },
    {
      "id": "04615a8f-9cf3-44d8-b97c-a00682af94e7",
      "name": "西湖站鄰近車位(基湖路)",
      "lat": 25.0804258,
      "lon": 121.567807,
      "city": "台北市",
      "district": "內湖區",
      "address": "西湖站鄰近車位(基湖路)台北市基湖路3巷587號",
      "space_number": 2,
      "day_rate": 20.0,
      "night_rate": 0,
      "monthly_rate": 0,
      "source": "uspace",
      "building_type": "lock",
      "financial_class": "uspace_owned"
    },
    {
      "id": "0485d74c-b9a0-49d9-a215-24cd4650ad33",
      "name": "IKEA台北城市店鄰近車位",
      "lat": 25.055152023506,
      "lon": 121.55002702457,
      "city": "台北市",
      "district": "松山區",
      "address": "IKEA台北城市店鄰近車位台北市敦化北路165巷1號",
      "space_number": 1,
      "day_rate": 40.0,
      "night_rate": 10.0,
      "monthly_rate": 0,
      "source": "uspace",
      "building_type": "lock",
      "financial_class": "uspace_owned"
    },
    {
      "id": "04900420-4fe2-4850-a2f5-5736a4cd2998",
      "name": "永吉豐 和苑三井花園飯店（台北忠孝）",
      "lat": 25.0420192,
      "lon": 121.5343508,
      "city": "台北市",
      "district": "大安區",
      "address": "永吉豐 和苑三井花園飯店（台北忠孝）台北市忠孝東路三段30號",
      "space_number": 82,
      "day_rate": 65.71428571428571,
      "night_rate": 0,
      "monthly_rate": 0,
      "source": "uspace",
      "building_type": "luckypa",
      "financial_class": "uspace_owned"
    },
    {
      "id": "04adf1c9-1563-4cfe-8ef4-8a036d9906e5",
      "name": "28飛行隊門口車位",
      "lat": 25.0508052,
      "lon": 121.5418689,
      "city": "台北市",
      "district": "中山區",
      "address": "28飛行隊門口車位台北市遼寧街68號",
      "space_number": 2,
      "day_rate": 50.0,
      "night_rate": 10.0,
      "monthly_rate": 0,
      "source": "uspace",
      "building_type": "lock",
      "financial_class": "uspace_owned"
    },
    {
      "id": "05712ab8-3cd7-4d25-9195-b9c202118b2f",
      "name": "廣州街觀光夜市站",
      "lat": 25.037416,
      "lon": 121.496692,
      "city": "台北市",
      "district": "萬華區",
      "address": "廣州街觀光夜市站台北市廣州街253巷27號對面",
      "space_number": 1,
      "day_rate": 30.0,
      "night_rate": 8.0,
      "monthly_rate": 0,
      "source": "uspace",
      "building_type": "subway",
      "financial_class": "uspace_owned"
    },
    {
      "id": "057a098b-79cc-43cc-95bd-06fafebc416c",
      "name": "道周醫院(正門)",
      "lat": 24.110697,
      "lon": 120.492135,
      "city": "彰化縣",
      "district": "和美鎮",
      "address": "道周醫院(正門)彰化縣道周路641號旁",
      "space_number": 13,
      "day_rate": 20.0,
      "night_rate": 0,
      "monthly_rate": 0,
      "source": "uspace",
      "building_type": "supernode",
      "financial_class": "agent_owned"
    },
    {
      "id": "05e239ac-899a-43fa-8000-918af2a9e95d",
      "name": "奧美伽健身會館-台中福科店",
      "lat": 24.1849412,
      "lon": 120.6169042,
      "city": "台中市",
      "district": "西屯區",
      "address": "奧美伽健身會館-台中福科店台中市福康路89號",
      "space_number": 7,
      "day_rate": 40.0,
      "night_rate": 0,
      "monthly_rate": 0,
      "source": "uspace",
      "building_type": "lock",
      "financial_class": "agent_owned"
    },
    {
      "id": "06d6ff57-3bf4-4aa7-ac48-b47975122d4d",
      "name": "南港展覽館鄰近車位",
      "lat": 25.055002,
      "lon": 121.615323,
      "city": "台北市",
      "district": "南港區",
      "address": "南港展覽館鄰近車位台北市中南街5號",
      "space_number": 2,
      "day_rate": 55.0,
      "night_rate": 30.0,
      "monthly_rate": 0,
      "source": "uspace",
      "building_type": "supernode",
      "financial_class": "uspace_owned"
    },
    {
      "id": "06f8b3b9-0073-4142-abfb-cbf7e1ee7e84",
      "name": "Four Seasons台大",
      "lat": 25.0171069,
      "lon": 121.5304709,
      "city": "台北市",
      "district": "中正區",
      "address": "Four Seasons台大台北市羅斯福路三段244巷9弄1-1號",
      "space_number": 0,
      "day_rate": 28.0,
      "night_rate": 0,
      "monthly_rate": 0,
      "source": "uspace",
      "building_type": "aiguard",
      "financial_class": "uspace_owned"
    },
    {
      "id": "072b4f45-7979-4bfa-a945-a839449070bc",
      "name": "板橋第一運動場鄰近車位",
      "lat": 25.0081901,
      "lon": 121.4682823,
      "city": "新北市",
      "district": "板橋區",
      "address": "板橋第一運動場鄰近車位新北市民族路129巷12弄",
      "space_number": 1,
      "day_rate": 25.0,
      "night_rate": 0,
      "monthly_rate": 0,
      "source": "uspace",
      "building_type": "lock",
      "financial_class": "uspace_owned"
    },
    {
      "id": "0818c334-8e28-4c38-adbd-bd8c49d1dcc3",
      "name": "樹林廠房田尾街車位",
      "lat": 24.948595056106,
      "lon": 121.40046603193,
      "city": "新北市",
      "district": "樹林區",
      "address": "樹林廠房田尾街車位新北市田尾街191-2號",
      "space_number": 0,
      "day_rate": 20.0,
      "night_rate": 0,
      "monthly_rate": 0,
      "source": "uspace",
      "building_type": "supernode",
      "financial_class": "uspace_owned"
    },
    {
      "id": "092e883a-6840-4513-bb77-144b154496ac",
      "name": "富紳師大分部第一停車場",
      "lat": 25.008224,
      "lon": 121.537443,
      "city": "台北市",
      "district": "文山區",
      "address": "富紳師大分部第一停車場台北市汀州路四段73號旁空地",
      "space_number": 22,
      "day_rate": 22.857142857142858,
      "night_rate": 10.0,
      "monthly_rate": 0,
      "source": "uspace",
      "building_type": "subway",
      "financial_class": "uspace_owned"
    },
    {
      "id": "093c0d98-1cc4-43e4-99e6-351582e6a371",
      "name": "統一時代對面(路易莎旁)",
      "lat": 25.041366483135572,
      "lon": 121.5659757744116,
      "city": "台北市",
      "district": "信義區",
      "address": "統一時代對面(路易莎旁)台北市忠孝東路五段31巷",
      "space_number": 16,
      "day_rate": 70.0,
      "night_rate": 0,
      "monthly_rate": 0,
      "source": "uspace",
      "building_type": "subway",
      "financial_class": "uspace_owned"
    },
    {
      "id": "096ad62b-b618-40c1-92e3-f473ae95c60d",
      "name": "北投大興光明車位",
      "lat": 25.130631,
      "lon": 121.500189,
      "city": "台北市",
      "district": "北投區",
      "address": "北投大興光明車位台北市大興街55號",
      "space_number": 1,
      "day_rate": 30.0,
      "night_rate": 0,
      "monthly_rate": 0,
      "source": "uspace",
      "building_type": "lock",
      "financial_class": "uspace_owned"
    },
    {
      "id": "0977b445-ba17-4727-b2e5-fef58502ec89",
      "name": "台中市東區練武路293巷車位",
      "lat": 24.143276,
      "lon": 120.691815,
      "city": "台中市",
      "district": "東區",
      "address": "台中市東區練武路293巷車位台中市練武路293巷",
      "space_number": 1,
      "day_rate": 30.0,
      "night_rate": 0,
      "monthly_rate": 0,
      "source": "uspace",
      "building_type": "subway",
      "financial_class": "agent_owned"
    },
    {
      "id": "099169a5-87cb-4a67-ab87-7dc07a9eb6bf",
      "name": "桃園忠勇二街場(⚡附設充電樁)",
      "lat": 24.966215,
      "lon": 121.304116,
      "city": "桃園市",
      "district": "八德區",
      "address": "桃園忠勇二街場(⚡附設充電樁)桃園市忠勇二街103號旁",
      "space_number": 4,
      "day_rate": 22.857142857142858,
      "night_rate": 8.0,
      "monthly_rate": 0,
      "source": "uspace",
      "building_type": "subway",
      "financial_class": "uspace_owned"
    },
    {
      "id": "09ed0406-a01e-4938-827f-f85685323039",
      "name": "佑全藥局大勇店(忠勇路)",
      "lat": 24.143632,
      "lon": 120.614111,
      "city": "台中市",
      "district": "西屯區",
      "address": "佑全藥局大勇店(忠勇路)台中市忠勇路51號",
      "space_number": 4,
      "day_rate": 30.0,
      "night_rate": 0,
      "monthly_rate": 0,
      "source": "uspace",
      "building_type": "lock",
      "financial_class": "agent_owned"
    },
    {
      "id": "0a3f2987-9a73-4e40-a7b4-dc102a89fd0e",
      "name": "善導寺鄰近車位",
      "lat": 25.045176,
      "lon": 121.525701,
      "city": "台北市",
      "district": "中正區",
      "address": "善導寺鄰近車位台北市紹興北街31巷3號",
      "space_number": 1,
      "day_rate": 50.714285714285715,
      "night_rate": 0,
      "monthly_rate": 0,
      "source": "uspace",
      "building_type": "lock",
      "financial_class": "uspace_owned"
    },
    {
      "id": "0a736733-6948-444c-ad5f-b8c593fa1474",
      "name": "永春大樓後方車位",
      "lat": 25.042316,
      "lon": 121.579585,
      "city": "台北市",
      "district": "信義區",
      "address": "永春大樓後方車位台北市忠孝東路五段703巷1弄7號",
      "space_number": 2,
      "day_rate": 40.0,
      "night_rate": 10.0,
      "monthly_rate": 0,
      "source": "uspace",
      "building_type": "lock",
      "financial_class": "uspace_owned"
    },
    {
      "id": "0a9c23fd-a595-4d36-a100-1d036bc6d344",
      "name": "旱溪振興路停車場",
      "lat": 24.133286,
      "lon": 120.697646,
      "city": "台中市",
      "district": "東區",
      "address": "旱溪振興路停車場台中市振興路與育英路口旁空地",
      "space_number": 8,
      "day_rate": 20.0,
      "night_rate": 0,
      "monthly_rate": 0,
      "source": "uspace",
      "building_type": "lock",
      "financial_class": "uspace_owned"
    },
    {
      "id": "0af1202e-ad38-4ede-b48a-0c35edd3c241",
      "name": "保平路精華車位",
      "lat": 25.004484,
      "lon": 121.508494,
      "city": "新北市",
      "district": "永和區",
      "address": "保平路精華車位新北市保平路225巷1號",
      "space_number": 3,
      "day_rate": 30.0,
      "night_rate": 0,
      "monthly_rate": 0,
      "source": "uspace",
      "building_type": "lock",
      "financial_class": "uspace_owned"
    },
    {
      "id": "0b03a31a-8fb3-4474-bf7b-7e779b88e882",
      "name": "敦南誠品後巷車位(寬心園旁)",
      "lat": 25.03901,
      "lon": 121.551045,
      "city": "台北市",
      "district": "大安區",
      "address": "敦南誠品後巷車位(寬心園旁)台北市仁愛路四段345巷4弄45號",
      "space_number": 2,
      "day_rate": 68.57142857142857,
      "night_rate": 0,
      "monthly_rate": 0,
      "source": "uspace",
      "building_type": "lock",
      "financial_class": "uspace_owned"
    },
    {
      "id": "0b14c3c8-92ec-403a-8196-fad1277c1030",
      "name": "林口忠孝路車位",
      "lat": 25.0699082,
      "lon": 121.370741,
      "city": "新北市",
      "district": "林口區",
      "address": "林口忠孝路車位新北市忠孝路506號",
      "space_number": 3,
      "day_rate": 30.0,
      "night_rate": 0,
      "monthly_rate": 0,
      "source": "uspace",
      "building_type": "lock",
      "financial_class": "uspace_owned"
    },
    {
      "id": "0b1ef29c-af65-4022-8b4c-2a0c592b9e98",
      "name": "南山新市園區",
      "lat": 23.0787457,
      "lon": 120.2978029,
      "city": "台南市",
      "district": "新市區",
      "address": "南山新市園區台南市國際路13號",
      "space_number": 435,
      "day_rate": 28.0,
      "night_rate": 0,
      "monthly_rate": 0,
      "source": "uspace",
      "building_type": "luckypa",
      "financial_class": "uspace_owned"
    },
    {
      "id": "0b2d0e1d-912c-4d7c-b766-53c6e8f7c064",
      "name": "USPACE中茂新天地",
      "lat": 25.0144458,
      "lon": 121.3000471,
      "city": "桃園市",
      "district": "桃園區",
      "address": "USPACE中茂新天地桃園市同德五街77號",
      "space_number": 299,
      "day_rate": 45.714285714285715,
      "night_rate": 0,
      "monthly_rate": 0,
      "source": "uspace",
      "building_type": "luckypa",
      "financial_class": "uspace_owned"
    },
    {
      "id": "0b922d82-2bef-45fb-9852-b80d887b8416",
      "name": "道周醫院(和善路89號)",
      "lat": 24.1099733,
      "lon": 120.4916879,
      "city": "彰化縣",
      "district": "和美鎮",
      "address": "道周醫院(和善路89號)彰化縣和善路89號",
      "space_number": 4,
      "day_rate": 20.0,
      "night_rate": 0,
      "monthly_rate": 0,
      "source": "uspace",
      "building_type": "supernode",
      "financial_class": "agent_owned"
    },
    {
      "id": "0bba57e8-2133-47de-8c59-2a0dacd91af5",
      "name": "歌林大廈Sogo精華車位2.0",
      "lat": 25.04309530288638,
      "lon": 121.54542450522209,
      "city": "台北市",
      "district": "大安區",
      "address": "歌林大廈Sogo精華車位2.0台北市大安路一段52巷16號",
      "space_number": 10,
      "day_rate": 75.71428571428571,
      "night_rate": 10.0,
      "monthly_rate": 0,
      "source": "uspace",
      "building_type": "supernode",
      "financial_class": "uspace_owned"
    },
    {
      "id": "0bbb3f31-4a1a-4a05-820a-565738e69685",
      "name": "吉祥公園鄰近車位",
      "lat": 25.05013308719736,
      "lon": 121.56300812058196,
      "city": "臺北市",
      "district": "松山區",
      "address": "吉祥公園鄰近車位臺北市八德路四段245巷32弄42-5號",
      "space_number": 0,
      "day_rate": 0,
      "night_rate": 0,
      "monthly_rate": 0,
      "source": "uspace",
      "building_type": "lock",
      "financial_class": "uspace_owned"
    },
    {
      "id": "0c6ac502-5096-41cf-a8b4-ba74509c7cb6",
      "name": "大曜智泊大里街車位",
      "lat": 24.095849,
      "lon": 120.677853,
      "city": "台中市",
      "district": "大里區",
      "address": "大曜智泊大里街車位台中市大里街15號對面",
      "space_number": 10,
      "day_rate": 10.0,
      "night_rate": 0,
      "monthly_rate": 0,
      "source": "uspace",
      "building_type": "subway",
      "financial_class": "agent_owned"
    },
    {
      "id": "0cd7c5ea-a407-419e-9db6-034d194b397e",
      "name": "桃園南平永安車位",
      "lat": 25.0159625,
      "lon": 121.2928483,
      "city": "桃園市",
      "district": "寶安里",
      "address": "桃園南平永安車位桃園市南平路556號",
      "space_number": 6,
      "day_rate": 32.857142857142854,
      "night_rate": 8.0,
      "monthly_rate": 0,
      "source": "uspace",
      "building_type": "lock",
      "financial_class": "agent_owned"
    },
    {
      "id": "0ce2d219-6037-4c03-a1df-2d038a5e59c6",
      "name": "秀朗路三段車位",
      "lat": 24.9934078,
      "lon": 121.5254282,
      "city": "新北市",
      "district": "中和區",
      "address": "秀朗路三段車位新北市秀朗路三段78巷1弄28號",
      "space_number": 1,
      "day_rate": 50.0,
      "night_rate": 0,
      "monthly_rate": 0,
      "source": "uspace",
      "building_type": "lock",
      "financial_class": "uspace_owned"
    },
    {
      "id": "0d047894-8fe9-41f8-8f89-cf0fb9c1f4be",
      "name": "內湖TI大樓",
      "lat": 25.079217,
      "lon": 121.593458,
      "city": "台北市",
      "district": "內湖區",
      "address": "內湖TI大樓台北市星雲街106號",
      "space_number": 1,
      "day_rate": 25.0,
      "night_rate": 0,
      "monthly_rate": 0,
      "source": "uspace",
      "building_type": "lock",
      "financial_class": "uspace_owned"
    },
    {
      "id": "0d07f61a-969f-4a57-8afb-e70e3acdfe31",
      "name": "一元堂鄰近車位",
      "lat": 25.049557,
      "lon": 121.566047,
      "city": "台北市",
      "district": "松山區",
      "address": "一元堂鄰近車位台北市八德路四段295巷18弄6號",
      "space_number": 1,
      "day_rate": 35.714285714285715,
      "night_rate": 0,
      "monthly_rate": 0,
      "source": "uspace",
      "building_type": "lock",
      "financial_class": "uspace_owned"
    },
    {
      "id": "0d1c986f-fc39-4ec5-aadc-ac6084443753",
      "name": "貓牛瑜伽車位(榮星羊雞城旁)",
      "lat": 25.0644903,
      "lon": 121.5414679,
      "city": "台北市",
      "district": "中山區",
      "address": "貓牛瑜伽車位(榮星羊雞城旁)台北市五常街97號",
      "space_number": 2,
      "day_rate": 30.0,
      "night_rate": 10.0,
      "monthly_rate": 0,
      "source": "uspace",
      "building_type": "lock",
      "financial_class": "uspace_owned"
    },
    {
      "id": "0d1ef2b7-9fa2-4649-afd0-df1217e5ba13",
      "name": "板橋車站鄰近車位",
      "lat": 25.016333,
      "lon": 121.46172,
      "city": "新北市",
      "district": "板橋區",
      "address": "板橋車站鄰近車位新北市光正街45巷25號",
      "space_number": 12,
      "day_rate": 40.0,
      "night_rate": 0,
      "monthly_rate": 0,
      "source": "uspace",
      "building_type": "subway",
      "financial_class": "uspace_owned"
    },
    {
      "id": "0dce5b9b-0052-4a7c-86c0-679721fda0f8",
      "name": "萬華德昌街精華車位",
      "lat": 25.0246589,
      "lon": 121.496471,
      "city": "台北市",
      "district": "萬華區",
      "address": "萬華德昌街精華車位台北市德昌街132巷6號",
      "space_number": 1,
      "day_rate": 40.0,
      "night_rate": 0,
      "monthly_rate": 0,
      "source": "uspace",
      "building_type": "lock",
      "financial_class": "uspace_owned"
    },
    {
      "id": "0dddc187-43c5-4ba7-a3a7-ec9b43e7cfb9",
      "name": "南山新市園區C棟",
      "lat": 23.0793595,
      "lon": 120.2975293,
      "city": "台南市",
      "district": "新市區",
      "address": "南山新市園區C棟台南市國際路15號",
      "space_number": 101,
      "day_rate": 28.0,
      "night_rate": 0,
      "monthly_rate": 0,
      "source": "uspace",
      "building_type": "luckypa",
      "financial_class": "uspace_owned"
    },
    {
      "id": "0e015982-acd9-400b-ae16-577acb748369",
      "name": "合作金庫林口分行前方車位",
      "lat": 25.0569818,
      "lon": 121.3672966,
      "city": "桃園市",
      "district": "龜山區",
      "address": "合作金庫林口分行前方車位桃園市文昌一街2號",
      "space_number": 9,
      "day_rate": 28.0,
      "night_rate": 10.0,
      "monthly_rate": 0,
      "source": "uspace",
      "building_type": "lock",
      "financial_class": "uspace_owned"
    },
    {
      "id": "0e3998d9-4aa4-4051-b527-9713c0a5de5e",
      "name": "歌林大廈Sogo地下車位",
      "lat": 25.043022356686,
      "lon": 121.54534090622,
      "city": "台北市",
      "district": "大安區",
      "address": "歌林大廈Sogo地下車位台北市大安路一段52巷16號",
      "space_number": 4,
      "day_rate": 75.71428571428571,
      "night_rate": 10.0,
      "monthly_rate": 0,
      "source": "uspace",
      "building_type": "aiguard",
      "financial_class": "uspace_owned"
    },
    {
      "id": "0e454d5f-afc7-4526-bed4-ebe8ed1ffd36",
      "name": "鎮三街鄰近車位",
      "lat": 24.999975,
      "lon": 121.315933,
      "city": "桃園市",
      "district": "桃園區",
      "address": "鎮三街鄰近車位桃園市中央街149號",
      "space_number": 5,
      "day_rate": 18.0,
      "night_rate": 0,
      "monthly_rate": 0,
      "source": "uspace",
      "building_type": "lock",
      "financial_class": "uspace_owned"
    },
    {
      "id": "0ef81889-d77e-42b4-ade8-b276eb5ec0df",
      "name": "新店中正路車位",
      "lat": 24.975105,
      "lon": 121.536027,
      "city": "新北市",
      "district": "新店區",
      "address": "新店中正路車位新北市中正路329巷1號",
      "space_number": 3,
      "day_rate": 30.0,
      "night_rate": 0,
      "monthly_rate": 0,
      "source": "uspace",
      "building_type": "lock",
      "financial_class": "uspace_owned"
    },
    {
      "id": "0f22249d-14c3-4893-8e05-be40af98da9f",
      "name": "浦城街精華車位",
      "lat": 25.0228249,
      "lon": 121.526515,
      "city": "台北市",
      "district": "大安區",
      "address": "浦城街精華車位台北市浦城街26巷4號",
      "space_number": 1,
      "day_rate": 77.14285714285714,
      "night_rate": 0,
      "monthly_rate": 0,
      "source": "uspace",
      "building_type": "lock",
      "financial_class": "uspace_owned"
    },
    {
      "id": "0f8b62b4-1240-47dc-8a31-56f4631f540e",
      "name": "天母棒球場德行東路車位",
      "lat": 25.11226195637437,
      "lon": 121.5358710133102,
      "city": "台北市",
      "district": "士林區",
      "address": "天母棒球場德行東路車位台北市德行東路283巷18號",
      "space_number": 2,
      "day_rate": 28.0,
      "night_rate": 0,
      "monthly_rate": 0,
      "source": "uspace",
      "building_type": "lock",
      "financial_class": "uspace_owned"
    },
    {
      "id": "0ff137d2-98f0-4243-9572-b406c83d00ce",
      "name": "西苑二街鄰近車位(柵欄外)(月租)",
      "lat": 24.184428,
      "lon": 120.637552,
      "city": "台中市",
      "district": "西屯區",
      "address": "西苑二街鄰近車位(柵欄外)(月租)台中市西苑二街178號",
      "space_number": 0,
      "day_rate": 0,
      "night_rate": 0,
      "monthly_rate": 0,
      "source": "uspace",
      "building_type": "lock",
      "financial_class": "agent_owned"
    },
    {
      "id": "10487f0b-5901-4c6e-9014-e555ac8268de",
      "name": "潮州街月租車位",
      "lat": 25.028790048726936,
      "lon": 121.52448929264364,
      "city": "台北市",
      "district": "大安區",
      "address": "潮州街月租車位台北市潮州街82巷",
      "space_number": 0,
      "day_rate": 0,
      "night_rate": 0,
      "monthly_rate": 0,
      "source": "uspace",
      "building_type": "lock",
      "financial_class": "uspace_owned"
    },
    {
      "id": "105e1ca7-9a3b-479e-bd2e-ca6119fcc0be",
      "name": "龜吼萬里聽濤驛站",
      "lat": 25.18930820807528,
      "lon": 121.68331520931696,
      "city": "新北市",
      "district": "萬里區",
      "address": "龜吼萬里聽濤驛站新北市玉田路45-6號旁",
      "space_number": 166,
      "day_rate": 24.285714285714285,
      "night_rate": 0,
      "monthly_rate": 0,
      "source": "uspace",
      "building_type": "recognition",
      "financial_class": "uspace_owned"
    },
    {
      "id": "1074d52e-da21-4fc0-a3fb-275dfbd901b3",
      "name": "仁愛金山南路車位",
      "lat": 25.037868,
      "lon": 121.527386,
      "city": "台北市",
      "district": "中正區",
      "address": "仁愛金山南路車位台北市仁愛路二段38巷2號",
      "space_number": 0,
      "day_rate": 0,
      "night_rate": 0,
      "monthly_rate": 0,
      "source": "uspace",
      "building_type": "lock",
      "financial_class": "uspace_owned"
    },
    {
      "id": "10b7dd3c-2e83-43e9-918d-cb0f2ef6252a",
      "name": "內湖民權東路六段280巷月租車位",
      "lat": 25.070523,
      "lon": 121.607664,
      "city": "台北市",
      "district": "內湖區",
      "address": "內湖民權東路六段280巷月租車位台北市民權東路六段280巷50號對面",
      "space_number": 9,
      "day_rate": 28.0,
      "night_rate": 0,
      "monthly_rate": 0,
      "source": "uspace",
      "building_type": "lock",
      "financial_class": "uspace_owned"
    },
    {
      "id": "115eb82e-ae5e-424b-b157-5b2f3dbdf74f",
      "name": "忠孝敦化地下車位(上通)",
      "lat": 25.0412289,
      "lon": 121.5497052,
      "city": "台北市",
      "district": "大安區",
      "address": "忠孝敦化地下車位(上通)台北市忠孝東路四段146巷1號B1",
      "space_number": 3,
      "day_rate": 61.42857142857143,
      "night_rate": 0,
      "monthly_rate": 0,
      "source": "uspace",
      "building_type": "supernode",
      "financial_class": "uspace_owned"
    },
    {
      "id": "11666a91-4b7d-4b09-9467-a49f5002d2be",
      "name": "凱恩斯牛排(公益店)",
      "lat": 24.151302922872,
      "lon": 120.63442549301,
      "city": "台中市",
      "district": "南屯區",
      "address": "凱恩斯牛排(公益店)台中市公益路二段536號",
      "space_number": 10,
      "day_rate": 30.0,
      "night_rate": 10.0,
      "monthly_rate": 0,
      "source": "uspace",
      "building_type": "supernode",
      "financial_class": "agent_owned"
    },
    {
      "id": "11a28e18-f2fa-4883-9b67-989a47e05d32",
      "name": "梧棲大仁停車場",
      "lat": 24.263935,
      "lon": 120.534,
      "city": "台中市",
      "district": "梧棲區",
      "address": "梧棲大仁停車場台中市大仁路二段378號旁(隔壁空地，中港世貿正對面)",
      "space_number": 90,
      "day_rate": 80.0,
      "night_rate": 0,
      "monthly_rate": 0,
      "source": "uspace",
      "building_type": "subway",
      "financial_class": "agent_owned"
    },
    {
      "id": "11dde1c9-3c9b-4d12-9040-1651490f22a3",
      "name": "逢明街29巷車位",
      "lat": 24.1756433,
      "lon": 120.6392125,
      "city": "台中市",
      "district": "西屯區",
      "address": "逢明街29巷車位台中市逢明街29巷70號旁空地",
      "space_number": 0,
      "day_rate": 22.857142857142858,
      "night_rate": 10.0,
      "monthly_rate": 0,
      "source": "uspace",
      "building_type": "lock",
      "financial_class": "agent_owned"
    },
    {
      "id": "12488d62-b5be-4c2c-bbaf-88a37a6db655",
      "name": "積穗國中鄰近車位",
      "lat": 25.0015838,
      "lon": 121.4784975,
      "city": "新北市",
      "district": "中和區",
      "address": "積穗國中鄰近車位新北市民安街42巷40號",
      "space_number": 1,
      "day_rate": 30.0,
      "night_rate": 0,
      "monthly_rate": 0,
      "source": "uspace",
      "building_type": "lock",
      "financial_class": "uspace_owned"
    },
    {
      "id": "1267fb48-3d8e-4614-a6e7-acb7cd0d8aa5",
      "name": "康茵行旅民權街車位",
      "lat": 24.112719253474,
      "lon": 120.62730663941,
      "city": "台中市",
      "district": "烏日區",
      "address": "康茵行旅民權街車位台中市大同九街73號",
      "space_number": 4,
      "day_rate": 20.0,
      "night_rate": 0,
      "monthly_rate": 0,
      "source": "uspace",
      "building_type": "supernode",
      "financial_class": "agent_owned"
    },
    {
      "id": "13061b53-1954-4171-bf54-cbef21ba39bb",
      "name": "Howard's Bike車位",
      "lat": 25.046911,
      "lon": 121.555706,
      "city": "台北市",
      "district": "松山區",
      "address": "Howard's Bike車位台北市光復南路22巷27號",
      "space_number": 2,
      "day_rate": 50.0,
      "night_rate": 0,
      "monthly_rate": 0,
      "source": "uspace",
      "building_type": "lock",
      "financial_class": "uspace_owned"
    },
    {
      "id": "1310faa3-aeb2-460c-84a4-bf42c245a049",
      "name": "平安公園鄰近車位",
      "lat": 25.031936493564,
      "lon": 121.55053364931,
      "city": "台北市",
      "district": "大安區",
      "address": "平安公園鄰近車位台北市安和路二段32巷27號",
      "space_number": 1,
      "day_rate": 50.0,
      "night_rate": 0,
      "monthly_rate": 0,
      "source": "uspace",
      "building_type": "lock",
      "financial_class": "uspace_owned"
    },
    {
      "id": "131af126-3558-46ef-8dc5-39bf72316753",
      "name": "USPACE中油福林站二場",
      "lat": 25.093375,
      "lon": 121.527738,
      "city": "台北市",
      "district": "士林區",
      "address": "USPACE中油福林站二場台北市中山北路五段",
      "space_number": 6,
      "day_rate": 45.714285714285715,
      "night_rate": 0,
      "monthly_rate": 0,
      "source": "uspace",
      "building_type": "supernode",
      "financial_class": "uspace_owned"
    },
    {
      "id": "1421323f-4214-4271-b805-4c4d85360fe6",
      "name": "65高地停車場",
      "lat": 25.144942,
      "lon": 121.798418,
      "city": "基隆市",
      "district": "中正區",
      "address": "65高地停車場基隆市長潭段168-9、192-4地號",
      "space_number": 33,
      "day_rate": 64.28571428571429,
      "night_rate": 0,
      "monthly_rate": 0,
      "source": "uspace",
      "building_type": "luckypa",
      "financial_class": "uspace_owned"
    },
    {
      "id": "1440bbbd-d57b-46ac-a07a-5d08bf1c044e",
      "name": "松江民生車位",
      "lat": 25.058552,
      "lon": 121.531872,
      "city": "台北市",
      "district": "中山區",
      "address": "松江民生車位台北市松江路226巷16-1號",
      "space_number": 4,
      "day_rate": 137.14285714285714,
      "night_rate": 40.0,
      "monthly_rate": 0,
      "source": "uspace",
      "building_type": "lock",
      "financial_class": "uspace_owned"
    },
    {
      "id": "14856f50-3bca-4bc2-9877-fed6fa1ff8c3",
      "name": "台視臨近車位(寧安街)",
      "lat": 25.0486866,
      "lon": 121.5538156,
      "city": "台北市",
      "district": "松山區",
      "address": "台視臨近車位(寧安街)台北市寧安街4巷",
      "space_number": 1,
      "day_rate": 50.0,
      "night_rate": 0,
      "monthly_rate": 0,
      "source": "uspace",
      "building_type": "lock",
      "financial_class": "uspace_owned"
    },
    {
      "id": "15d2c18e-7213-4d31-8ec9-c6f580448b6d",
      "name": "合江街69巷車位(越南河粉巷弄)",
      "lat": 25.058185,
      "lon": 121.53985,
      "city": "台北市",
      "district": "中山區",
      "address": "合江街69巷車位(越南河粉巷弄)台北市合江街69巷",
      "space_number": 3,
      "day_rate": 37.142857142857146,
      "night_rate": 0,
      "monthly_rate": 0,
      "source": "uspace",
      "building_type": "lock",
      "financial_class": "uspace_owned"
    },
    {
      "id": "15d2eb19-fc59-4d6a-a204-19d253a85d8f",
      "name": "遼寧二街鄰近車位",
      "lat": 22.644359,
      "lon": 120.294369,
      "city": "高雄市",
      "district": "三民區",
      "address": "遼寧二街鄰近車位高雄市高雄市三民區熱河二街249號（後方巷子空地）",
      "space_number": 7,
      "day_rate": 30.0,
      "night_rate": 0,
      "monthly_rate": 0,
      "source": "uspace",
      "building_type": "lock",
      "financial_class": "uspace_owned"
    },
    {
      "id": "160669a6-d356-4c00-9dd6-36ba64e2b853",
      "name": "莊敬高職鄰近車位",
      "lat": 25.014851,
      "lon": 121.520213,
      "city": "新北市",
      "district": "永和區",
      "address": "莊敬高職鄰近車位新北市竹林路39巷32弄43號",
      "space_number": 1,
      "day_rate": 70.57142857142857,
      "night_rate": 0,
      "monthly_rate": 0,
      "source": "uspace",
      "building_type": "lock",
      "financial_class": "uspace_owned"
    },
    {
      "id": "17dc5e35-0b55-435d-9037-e1d1ecf1fab0",
      "name": "洛陽路111巷",
      "lat": 24.168048,
      "lon": 120.650719,
      "city": "台中市",
      "district": "西屯區",
      "address": "洛陽路111巷台中市洛陽路111巷32號旁",
      "space_number": 0,
      "day_rate": 0,
      "night_rate": 0,
      "monthly_rate": 0,
      "source": "uspace",
      "building_type": "subway",
      "financial_class": "agent_owned"
    },
    {
      "id": "190408d0-14ed-48e0-9135-2f9531d2aa85",
      "name": "豐原源豐路車位",
      "lat": 24.252837223041,
      "lon": 120.71619039791,
      "city": "台中市",
      "district": "豐原區",
      "address": "豐原源豐路車位台中市源豐路60號",
      "space_number": 4,
      "day_rate": 0,
      "night_rate": 0,
      "monthly_rate": 0,
      "source": "uspace",
      "building_type": "lock",
      "financial_class": "agent_owned"
    },
    {
      "id": "1979f44a-cd16-4ee6-90ce-af823d48a30e",
      "name": "永康街7巷車位",
      "lat": 25.0330389,
      "lon": 121.53066,
      "city": "台北市",
      "district": "大安區",
      "address": "永康街7巷車位台北市永康街7巷6號",
      "space_number": 4,
      "day_rate": 112.85714285714286,
      "night_rate": 0,
      "monthly_rate": 0,
      "source": "uspace",
      "building_type": "supernode",
      "financial_class": "uspace_owned"
    },
    {
      "id": "19e47fd4-7393-4854-818a-07a1a9527e0d",
      "name": "板橋海山郵局後巷車位",
      "lat": 25.01264200998,
      "lon": 121.46972930581,
      "city": "新北市",
      "district": "板橋區",
      "address": "板橋海山郵局後巷車位新北市漢生東路161巷5號旁",
      "space_number": 0,
      "day_rate": 0,
      "night_rate": 0,
      "monthly_rate": 0,
      "source": "uspace",
      "building_type": "subway",
      "financial_class": "uspace_owned"
    },
    {
      "id": "1a9ec5be-d0df-4e8c-8b8b-bb8ec6805904",
      "name": "信義GD車位",
      "lat": 25.033624969090823,
      "lon": 121.55832395408451,
      "city": "台北市",
      "district": "信義區",
      "address": "信義GD車位台北市光復南路473巷",
      "space_number": 11,
      "day_rate": 60.0,
      "night_rate": 0,
      "monthly_rate": 0,
      "source": "uspace",
      "building_type": "supernode",
      "financial_class": "uspace_owned"
    },
    {
      "id": "1aa8c664-06c6-4367-a748-b2f166eb3386",
      "name": "中崙新村車位",
      "lat": 25.0456571,
      "lon": 121.5572459,
      "city": "台北市",
      "district": "松山區",
      "address": "中崙新村車位台北市光復南路58巷3號",
      "space_number": 7,
      "day_rate": 50.0,
      "night_rate": 0,
      "monthly_rate": 0,
      "source": "uspace",
      "building_type": "lock",
      "financial_class": "uspace_owned"
    },
    {
      "id": "1b376d3a-7412-4db5-87c1-c355c6519b4b",
      "name": "中吉公園鄰近車位",
      "lat": 25.056827,
      "lon": 121.531609,
      "city": "台北市",
      "district": "中山區",
      "address": "中吉公園鄰近車位台北市松江路188巷17號",
      "space_number": 1,
      "day_rate": 50.0,
      "night_rate": 0,
      "monthly_rate": 0,
      "source": "uspace",
      "building_type": "lock",
      "financial_class": "uspace_owned"
    },
    {
      "id": "1b7d4c20-7a0b-4090-9bad-31f572f30df2",
      "name": "南京光復鄰近車位",
      "lat": 25.050957210972516,
      "lon": 121.55919152084402,
      "city": "台北市",
      "district": "松山區",
      "address": "南京光復鄰近車位台北市南京東路五段34之1號",
      "space_number": 2,
      "day_rate": 40.0,
      "night_rate": 10.0,
      "monthly_rate": 0,
      "source": "uspace",
      "building_type": "lock",
      "financial_class": "uspace_owned"
    },
    {
      "id": "1b9aef0d-23e7-44e2-9245-b5e5a53a5307",
      "name": "C10世正經貿大樓(B1機車區)",
      "lat": 25.057195,
      "lon": 121.6161399,
      "city": "台北市",
      "district": "南港區",
      "address": "C10世正經貿大樓(B1機車區)台北市經貿二路66號B1",
      "space_number": 208,
      "day_rate": 30.0,
      "night_rate": 0,
      "monthly_rate": 0,
      "source": "uspace",
      "building_type": "luckypa",
      "financial_class": "uspace_owned"
    },
    {
      "id": "1cb3d8b8-7836-4f0e-adb6-30de8d35ab52",
      "name": "伯爵山莊車位(圓環右側)",
      "lat": 25.076141,
      "lon": 121.642911,
      "city": "新北市",
      "district": "汐止區",
      "address": "伯爵山莊車位(圓環右側)新北市翠峰街23號",
      "space_number": 0,
      "day_rate": 0,
      "night_rate": 0,
      "monthly_rate": 0,
      "source": "uspace",
      "building_type": "lock",
      "financial_class": "uspace_owned"
    },
    {
      "id": "1d840945-fbee-4016-b83b-0ddfce414099",
      "name": "北車YMCA前方車位",
      "lat": 25.0456755,
      "lon": 121.5165906,
      "city": "台北市",
      "district": "中正區",
      "address": "北車YMCA前方車位台北市許昌街19號",
      "space_number": 3,
      "day_rate": 70.0,
      "night_rate": 0,
      "monthly_rate": 0,
      "source": "uspace",
      "building_type": "lock",
      "financial_class": "uspace_owned"
    },
    {
      "id": "1dfde816-e975-4835-9662-b8e874140ca9",
      "name": "全球科技廣場月租車位",
      "lat": 25.064285587714,
      "lon": 121.58325068043,
      "city": "台北市",
      "district": "內湖區",
      "address": "全球科技廣場月租車位台北市新湖二路329號",
      "space_number": 0,
      "day_rate": 28.0,
      "night_rate": 0,
      "monthly_rate": 0,
      "source": "uspace",
      "building_type": "lock",
      "financial_class": "uspace_owned"
    },
    {
      "id": "1ea7b3b7-4e2a-4f3a-933c-68a8e01aada4",
      "name": "長庚醫院後方車位",
      "lat": 25.055248913751935,
      "lon": 121.55015668585509,
      "city": "台北市",
      "district": "松山區",
      "address": "長庚醫院後方車位台北市敦化北路199巷2弄13號",
      "space_number": 2,
      "day_rate": 40.0,
      "night_rate": 20.0,
      "monthly_rate": 0,
      "source": "uspace",
      "building_type": "lock",
      "financial_class": "uspace_owned"
    },
    {
      "id": "1efe41b7-d082-474a-a056-abc94f02e991",
      "name": "NAGONAGO寵物友善餐廳",
      "lat": 24.195078,
      "lon": 120.661367,
      "city": "台中市",
      "district": "北屯區",
      "address": "NAGONAGO寵物友善餐廳台中市同榮路93號",
      "space_number": 5,
      "day_rate": 30.0,
      "night_rate": 0,
      "monthly_rate": 0,
      "source": "uspace",
      "building_type": "lock",
      "financial_class": "uspace_owned"
    },
    {
      "id": "1f2dfcee-7447-4b42-af0f-dce32b3ae0de",
      "name": "聯合報車位",
      "lat": 25.042121,
      "lon": 121.563655,
      "city": "台北市",
      "district": "信義區",
      "address": "聯合報車位台北市忠孝東路四段559巷1號",
      "space_number": 4,
      "day_rate": 50.0,
      "night_rate": 10.0,
      "monthly_rate": 0,
      "source": "uspace",
      "building_type": "lock",
      "financial_class": "uspace_owned"
    },
    {
      "id": "1fb6a440-78c7-460c-80cd-46e93dac7207",
      "name": "西門成都路鄰近車位",
      "lat": 25.0441443,
      "lon": 121.5021427,
      "city": "台北市",
      "district": "萬華區",
      "address": "西門成都路鄰近車位台北市康定路30巷169號",
      "space_number": 1,
      "day_rate": 40.0,
      "night_rate": 10.0,
      "monthly_rate": 0,
      "source": "uspace",
      "building_type": "lock",
      "financial_class": "uspace_owned"
    },
    {
      "id": "200c030c-78f0-4f01-a06e-c767935da563",
      "name": "建國錦州街車位",
      "lat": 25.0612309,
      "lon": 121.5379162,
      "city": "台北市",
      "district": "中山區",
      "address": "建國錦州街車位台北市錦州街305巷",
      "space_number": 2,
      "day_rate": 35.714285714285715,
      "night_rate": 10.0,
      "monthly_rate": 0,
      "source": "uspace",
      "building_type": "lock",
      "financial_class": "uspace_owned"
    },
    {
      "id": "2046e51f-bff3-4a20-a566-2c38d94ba58b",
      "name": "天母棒球場鄰近車位",
      "lat": 25.113007984331244,
      "lon": 121.53590856668346,
      "city": "台北市",
      "district": "士林區",
      "address": "天母棒球場鄰近車位台北市士東路254號",
      "space_number": 1,
      "day_rate": 24.285714285714285,
      "night_rate": 10.0,
      "monthly_rate": 0,
      "source": "uspace",
      "building_type": "lock",
      "financial_class": "uspace_owned"
    },
    {
      "id": "20605460-153c-4539-b31b-d8847c07cc47",
      "name": "USPACE中油福林站一場（太古福斯汽車）",
      "lat": 25.0,
      "lon": 121.0,
      "city": "台北市",
      "district": "士林區",
      "address": "USPACE中油福林站一場（太古福斯汽車）台北市中山北路五段",
      "space_number": 0,
      "day_rate": 0,
      "night_rate": 0,
      "monthly_rate": 0,
      "source": "uspace",
      "building_type": "aiguard",
      "financial_class": "uspace_owned"
    },
    {
      "id": "20cfd875-453b-4e1c-990a-c17e92c06dbf",
      "name": "永和耕莘醫院停車場(戶外地鎖車位)",
      "lat": 25.010985291365,
      "lon": 121.51699573434,
      "city": "新北市",
      "district": "永和區",
      "address": "永和耕莘醫院停車場(戶外地鎖車位)新北市國光路123號",
      "space_number": 3,
      "day_rate": 42.857142857142854,
      "night_rate": 0,
      "monthly_rate": 0,
      "source": "uspace",
      "building_type": "supernode",
      "financial_class": "uspace_owned"
    },
    {
      "id": "21735770-8a78-45f5-9720-d39607f4d356",
      "name": "國聖街鄰近車位",
      "lat": 23.039634,
      "lon": 120.231917,
      "city": "台南市",
      "district": "永康區",
      "address": "國聖街鄰近車位台南市國聖街",
      "space_number": 14,
      "day_rate": 20.0,
      "night_rate": 0,
      "monthly_rate": 0,
      "source": "uspace",
      "building_type": "supernode",
      "financial_class": "uspace_owned"
    },
    {
      "id": "2188a31d-b946-4abf-956f-645e70f02c14",
      "name": "仁愛圓環鄰近車位",
      "lat": 25.039050194532248,
      "lon": 121.5470772362016,
      "city": "台北市",
      "district": "大安區",
      "address": "仁愛圓環鄰近車位台北市敦化南路一段270巷21號",
      "space_number": 5,
      "day_rate": 80.0,
      "night_rate": 10.0,
      "monthly_rate": 0,
      "source": "uspace",
      "building_type": "lock",
      "financial_class": "uspace_owned"
    },
    {
      "id": "2191d260-d5f8-4da3-b4f1-7a228abcacd2",
      "name": "研究院路停車場",
      "lat": 25.051542220207,
      "lon": 121.61645971859,
      "city": "台北市",
      "district": "南港區",
      "address": "研究院路停車場台北市研究院路一段101巷16弄8號",
      "space_number": 39,
      "day_rate": 30.0,
      "night_rate": 0,
      "monthly_rate": 0,
      "source": "uspace",
      "building_type": "luckypa",
      "financial_class": "uspace_owned"
    },
    {
      "id": "22133038-96e1-4202-a403-387d9443e93a",
      "name": "新竹勝利九街柴比餐飲",
      "lat": 24.825217,
      "lon": 121.0294377,
      "city": "新竹縣",
      "district": "竹北市",
      "address": "新竹勝利九街柴比餐飲新竹縣勝利九街72號",
      "space_number": 5,
      "day_rate": 22.857142857142858,
      "night_rate": 0,
      "monthly_rate": 0,
      "source": "uspace",
      "building_type": "lock",
      "financial_class": "uspace_owned"
    },
    {
      "id": "2218fe12-3fd5-43e1-a245-d21d0b9cb114",
      "name": "蘆洲享宴精華車位",
      "lat": 25.081635124396,
      "lon": 121.48137140441,
      "city": "新北市",
      "district": "蘆洲區",
      "address": "蘆洲享宴精華車位新北市重陽一街26號",
      "space_number": 6,
      "day_rate": 32.857142857142854,
      "night_rate": 0,
      "monthly_rate": 0,
      "source": "uspace",
      "building_type": "supernode",
      "financial_class": "uspace_owned"
    },
    {
      "id": "22604c57-b2f9-4eae-94fd-cdc81531de67",
      "name": "大安高工鄰近車位（朝代金站大樓後方）",
      "lat": 25.032033958857,
      "lon": 121.54399949427,
      "city": "台北市",
      "district": "大安區",
      "address": "大安高工鄰近車位（朝代金站大樓後方）台北市復興南路二段25-27號",
      "space_number": 1,
      "day_rate": 40.0,
      "night_rate": 10.0,
      "monthly_rate": 0,
      "source": "uspace",
      "building_type": "lock",
      "financial_class": "uspace_owned"
    },
    {
      "id": "22f7b590-a88f-47c6-bf1e-659a4ef0be80",
      "name": "捷運七張站車位(寶強路)",
      "lat": 24.978175,
      "lon": 121.543519,
      "city": "新北市",
      "district": "新店區",
      "address": "捷運七張站車位(寶強路)新北市寶強路2號",
      "space_number": 3,
      "day_rate": 60.0,
      "night_rate": 28.0,
      "monthly_rate": 0,
      "source": "uspace",
      "building_type": "supernode",
      "financial_class": "uspace_owned"
    },
    {
      "id": "23b22d25-4b67-4b4f-9be7-858203de1e32",
      "name": "晴光市場旁車位(柵欄外)",
      "lat": 25.0654913,
      "lon": 121.5239159,
      "city": "台北市",
      "district": "中山區",
      "address": "晴光市場旁車位(柵欄外)台北市雙城街18巷3號",
      "space_number": 2,
      "day_rate": 80.0,
      "night_rate": 20.0,
      "monthly_rate": 0,
      "source": "uspace",
      "building_type": "supernode",
      "financial_class": "uspace_owned"
    },
    {
      "id": "23bc6145-02be-436d-b4e1-97a9817e4a6f",
      "name": "啄木鳥林口店",
      "lat": 25.0754829,
      "lon": 121.384068,
      "city": "新北市",
      "district": "林口區",
      "address": "啄木鳥林口店新北市仁愛路二段80號",
      "space_number": 8,
      "day_rate": 20.0,
      "night_rate": 6.0,
      "monthly_rate": 0,
      "source": "uspace",
      "building_type": "lock",
      "financial_class": "uspace_owned"
    },
    {
      "id": "240a992d-c0dd-4a80-a088-2113663ddc3a",
      "name": "敦化和平精華車位",
      "lat": 25.0250994,
      "lon": 121.5477948,
      "city": "台北市",
      "district": "大安區",
      "address": "敦化和平精華車位台北市四維路244號",
      "space_number": 4,
      "day_rate": 50.0,
      "night_rate": 30.0,
      "monthly_rate": 0,
      "source": "uspace",
      "building_type": "lock",
      "financial_class": "uspace_owned"
    },
    {
      "id": "245708d8-f419-4384-a778-6d13c36c0ba3",
      "name": "遠企旁精華車位",
      "lat": 25.026991,
      "lon": 121.5497,
      "city": "台北市",
      "district": "大安區",
      "address": "遠企旁精華車位台北市安和路二段185號對面",
      "space_number": 2,
      "day_rate": 50.0,
      "night_rate": 20.0,
      "monthly_rate": 0,
      "source": "uspace",
      "building_type": "lock",
      "financial_class": "uspace_owned"
    },
    {
      "id": "251492e5-94c8-4a11-ab8d-807dc556e873",
      "name": "何厝街車位",
      "lat": 24.1623047,
      "lon": 120.6550839,
      "city": "台中市",
      "district": "西屯區",
      "address": "何厝街車位台中市何厝街68號",
      "space_number": 1,
      "day_rate": 45.714285714285715,
      "night_rate": 40.0,
      "monthly_rate": 0,
      "source": "uspace",
      "building_type": "lock",
      "financial_class": "agent_owned"
    },
    {
      "id": "256167c6-3e9a-40ee-a78a-51f734dcf8e0",
      "name": "永和耕莘醫院鄰近車位",
      "lat": 25.009065,
      "lon": 121.517781,
      "city": "新北市",
      "district": "永和區",
      "address": "永和耕莘醫院鄰近車位新北市中正路666巷25號",
      "space_number": 1,
      "day_rate": 44.285714285714285,
      "night_rate": 10.0,
      "monthly_rate": 0,
      "source": "uspace",
      "building_type": "lock",
      "financial_class": "uspace_owned"
    },
    {
      "id": "25a2ec27-1881-402d-aebd-d54ddaa95914",
      "name": "成功三街鄰近車位",
      "lat": 22.958562,
      "lon": 120.231228,
      "city": "台南市",
      "district": "仁德區",
      "address": "成功三街鄰近車位台南市成功三街",
      "space_number": 5,
      "day_rate": 20.0,
      "night_rate": 0,
      "monthly_rate": 0,
      "source": "uspace",
      "building_type": "lock",
      "financial_class": "uspace_owned"
    },
    {
      "id": "26b26644-7179-45e9-81dc-4aab886dadb4",
      "name": "立嘉成",
      "lat": 24.2479333,
      "lon": 120.6911454,
      "city": "台中市",
      "district": "神岡區",
      "address": "立嘉成台中市中山路303號",
      "space_number": 0,
      "day_rate": 0,
      "night_rate": 0,
      "monthly_rate": 0,
      "source": "uspace",
      "building_type": "lock",
      "financial_class": "agent_owned"
    },
    {
      "id": "2706143e-73ef-4c40-a16a-263f4d7e109e",
      "name": "淡水梨花大苑旁車位",
      "lat": 25.1704526,
      "lon": 121.4490773,
      "city": "新北市",
      "district": "淡水區",
      "address": "淡水梨花大苑旁車位新北市學府路68號",
      "space_number": 4,
      "day_rate": 32.857142857142854,
      "night_rate": 0,
      "monthly_rate": 0,
      "source": "uspace",
      "building_type": "lock",
      "financial_class": "uspace_owned"
    },
    {
      "id": "27847754-852a-4371-81d6-f20ea4bacdfd",
      "name": "農安街精華車位",
      "lat": 25.064959,
      "lon": 121.535957,
      "city": "台北市",
      "district": "中山區",
      "address": "農安街精華車位台北市農安街271巷5號",
      "space_number": 3,
      "day_rate": 50.0,
      "night_rate": 28.0,
      "monthly_rate": 0,
      "source": "uspace",
      "building_type": "supernode",
      "financial_class": "uspace_owned"
    },
    {
      "id": "278e6342-12e5-4861-9f5a-372444109e4e",
      "name": "光復南路260巷7號旁車位",
      "lat": 25.039863,
      "lon": 121.556713,
      "city": "台北市",
      "district": "大安區",
      "address": "光復南路260巷7號旁車位台北市光復南路260巷7號",
      "space_number": 1,
      "day_rate": 54.285714285714285,
      "night_rate": 0,
      "monthly_rate": 0,
      "source": "uspace",
      "building_type": "lock",
      "financial_class": "uspace_owned"
    },
    {
      "id": "27d0ae4d-2bc9-499c-b29a-ba4a9a2d5fd1",
      "name": "新莊思源路370巷車位",
      "lat": 25.051744070649,
      "lon": 121.46124951307,
      "city": "新北市",
      "district": "新莊區",
      "address": "新莊思源路370巷車位新北市思源路370巷",
      "space_number": 12,
      "day_rate": 30.0,
      "night_rate": 0,
      "monthly_rate": 0,
      "source": "uspace",
      "building_type": "subway",
      "financial_class": "uspace_owned"
    },
    {
      "id": "2839a636-4e80-4cce-90e0-7e91a1a81725",
      "name": "伯爵山莊車位(社區後巷)",
      "lat": 25.076467,
      "lon": 121.642913,
      "city": "新北市",
      "district": "汐止區",
      "address": "伯爵山莊車位(社區後巷)新北市翠峰街23號",
      "space_number": 0,
      "day_rate": 0,
      "night_rate": 0,
      "monthly_rate": 0,
      "source": "uspace",
      "building_type": "lock",
      "financial_class": "uspace_owned"
    },
    {
      "id": "283ab10a-ba41-4085-b97a-8851dc4bcbaf",
      "name": "中正紀念堂鄰近車位",
      "lat": 25.034342872924,
      "lon": 121.52379370274,
      "city": "台北市",
      "district": "大安區",
      "address": "中正紀念堂鄰近車位台北市杭州南路二段11號",
      "space_number": 1,
      "day_rate": 35.0,
      "night_rate": 0,
      "monthly_rate": 0,
      "source": "uspace",
      "building_type": "lock",
      "financial_class": "uspace_owned"
    },
    {
      "id": "289836bd-8ed9-4383-ae78-a6fc4543e46e",
      "name": "時代通商大樓",
      "lat": 25.040814,
      "lon": 121.554926,
      "city": "台北市",
      "district": "大安區",
      "address": "時代通商大樓台北市光復南路240巷55號",
      "space_number": 2,
      "day_rate": 78.57142857142857,
      "night_rate": 0,
      "monthly_rate": 0,
      "source": "uspace",
      "building_type": "supernode",
      "financial_class": "uspace_owned"
    },
    {
      "id": "2898a22a-4a5f-4163-96b5-35c8c8dbd3b6",
      "name": "國父紀念館車位(光復南路421巷)",
      "lat": 25.036238,
      "lon": 121.558454,
      "city": "台北市",
      "district": "信義區",
      "address": "國父紀念館車位(光復南路421巷)台北市光復南路421巷19號",
      "space_number": 1,
      "day_rate": 40.0,
      "night_rate": 0,
      "monthly_rate": 0,
      "source": "uspace",
      "building_type": "lock",
      "financial_class": "uspace_owned"
    },
    {
      "id": "28a7a0aa-b864-41c9-a9b0-3b195721079d",
      "name": "小捲尾寵物精品美容前方車位",
      "lat": 25.039155408049,
      "lon": 121.55113755977888,
      "city": "台北市",
      "district": "大安區",
      "address": "小捲尾寵物精品美容前方車位台北市仁愛路四段345巷4弄45號",
      "space_number": 2,
      "day_rate": 90.0,
      "night_rate": 30.0,
      "monthly_rate": 0,
      "source": "uspace",
      "building_type": "lock",
      "financial_class": "uspace_owned"
    },
    {
      "id": "292d5bff-db97-4db0-8134-d7bdbb593fe1",
      "name": "衣櫥餐酒前方車位",
      "lat": 25.042529,
      "lon": 121.54815,
      "city": "台北市",
      "district": "大安區",
      "address": "衣櫥餐酒前方車位台北市忠孝東路四段101巷16號",
      "space_number": 3,
      "day_rate": 78.57142857142857,
      "night_rate": 10.0,
      "monthly_rate": 0,
      "source": "uspace",
      "building_type": "lock",
      "financial_class": "uspace_owned"
    },
    {
      "id": "292d9f91-64bb-441d-b947-61e130c8fbce",
      "name": "九份國小車位",
      "lat": 25.107385,
      "lon": 121.844025,
      "city": "新北市",
      "district": "瑞芳區",
      "address": "九份國小車位新北市崙頂路110號",
      "space_number": 2,
      "day_rate": 31.428571428571427,
      "night_rate": 5.0,
      "monthly_rate": 0,
      "source": "uspace",
      "building_type": "supernode",
      "financial_class": "uspace_owned"
    },
    {
      "id": "293bf30c-fa53-4344-810a-89924d608892",
      "name": "三峽老街中山路車位",
      "lat": 24.9344726,
      "lon": 121.3677653,
      "city": "新北市",
      "district": "三峽區",
      "address": "三峽老街中山路車位新北市中山路51-1號",
      "space_number": 2,
      "day_rate": 40.0,
      "night_rate": 0,
      "monthly_rate": 0,
      "source": "uspace",
      "building_type": "lock",
      "financial_class": "uspace_owned"
    },
    {
      "id": "2af82b32-7a05-4f8e-8775-425ab4aa8090",
      "name": "敦化北路車位(法蘭司麵包店旁)",
      "lat": 25.054165,
      "lon": 121.549967,
      "city": "台北市",
      "district": "松山區",
      "address": "敦化北路車位(法蘭司麵包店旁)台北市敦化北路155巷5號",
      "space_number": 1,
      "day_rate": 30.0,
      "night_rate": 0,
      "monthly_rate": 0,
      "source": "uspace",
      "building_type": "lock",
      "financial_class": "uspace_owned"
    },
    {
      "id": "2b09b5d6-0202-487c-aa8b-4d39c4df3a66",
      "name": "宏達僑中三場",
      "lat": 25.0066561,
      "lon": 121.4416041,
      "city": "新北市",
      "district": "板橋區",
      "address": "宏達僑中三場新北市環河西路五段28號",
      "space_number": 4,
      "day_rate": 20.0,
      "night_rate": 0,
      "monthly_rate": 0,
      "source": "uspace",
      "building_type": "subway",
      "financial_class": "uspace_owned"
    },
    {
      "id": "2b5058e6-f962-46db-9a1c-77fd9f90355c",
      "name": "復興市民精華車位",
      "lat": 25.0442868,
      "lon": 121.5434292,
      "city": "台北市",
      "district": "大安區",
      "address": "復興市民精華車位台北市安東街35巷33號",
      "space_number": 1,
      "day_rate": 52.857142857142854,
      "night_rate": 0,
      "monthly_rate": 0,
      "source": "uspace",
      "building_type": "lock",
      "financial_class": "uspace_owned"
    },
    {
      "id": "2c905fbc-d2f4-45f2-9ff3-b663115f92f4",
      "name": "南京復興鄰近車位",
      "lat": 25.052356,
      "lon": 121.545638,
      "city": "台北市",
      "district": "松山區",
      "address": "南京復興鄰近車位台北市南京東路三段303巷3弄",
      "space_number": 6,
      "day_rate": 52.857142857142854,
      "night_rate": 0,
      "monthly_rate": 0,
      "source": "uspace",
      "building_type": "lock",
      "financial_class": "uspace_owned"
    },
    {
      "id": "2ca156d7-b24b-40df-b3e6-0eb95c347a08",
      "name": "USPACE正大樂富停車場",
      "lat": 25.10441,
      "lon": 121.514339,
      "city": "台北市",
      "district": "北投區",
      "address": "USPACE正大樂富停車場台北市文承路28號",
      "space_number": 41,
      "day_rate": 40.0,
      "night_rate": 0,
      "monthly_rate": 0,
      "source": "uspace",
      "building_type": "recognition",
      "financial_class": "uspace_owned"
    },
    {
      "id": "2caad3d7-809a-46a3-9ba3-78f78f3d691b",
      "name": "三德大飯店(後側)",
      "lat": 25.0646528,
      "lon": 121.5189264,
      "city": "台北市",
      "district": "大同區",
      "address": "三德大飯店(後側)台北市承德路三段51巷",
      "space_number": 5,
      "day_rate": 40.0,
      "night_rate": 0,
      "monthly_rate": 0,
      "source": "uspace",
      "building_type": "supernode",
      "financial_class": "uspace_owned"
    },
    {
      "id": "2d3305bc-3674-4419-95ee-afb7ff1030b6",
      "name": "復興路二段99巷停車場",
      "lat": 24.12405,
      "lon": 120.66284,
      "city": "台中市",
      "district": "南區",
      "address": "復興路二段99巷停車場台中市復興路二段99巷6號",
      "space_number": 4,
      "day_rate": 40.0,
      "night_rate": 10.0,
      "monthly_rate": 0,
      "source": "uspace",
      "building_type": "subway",
      "financial_class": "agent_owned"
    },
    {
      "id": "2d56c5a5-dadb-4bc4-a003-bcb7c03a44fb",
      "name": "USPACE湯城園區停車場(汽車)",
      "lat": 25.045496,
      "lon": 121.469187,
      "city": "新北市",
      "district": "三重區",
      "address": "USPACE湯城園區停車場(汽車)新北市重新路5段609巷",
      "space_number": 150,
      "day_rate": 30.0,
      "night_rate": 0,
      "monthly_rate": 0,
      "source": "uspace",
      "building_type": "luckypa",
      "financial_class": "uspace_owned"
    },
    {
      "id": "2d94aab6-8b03-40b7-8b95-707843b8d9dc",
      "name": "社子市場鄰近車位",
      "lat": 25.0893875,
      "lon": 121.50958,
      "city": "台北市",
      "district": "士林區",
      "address": "社子市場鄰近車位台北市社正路45巷1號",
      "space_number": 1,
      "day_rate": 20.0,
      "night_rate": 0,
      "monthly_rate": 0,
      "source": "uspace",
      "building_type": "lock",
      "financial_class": "uspace_owned"
    },
    {
      "id": "2e3b3a46-19db-44e3-bff3-3eb334ad0413",
      "name": "宏泰交易一號廣場",
      "lat": 25.037311311691,
      "lon": 121.5696754355,
      "city": "台北市",
      "district": "信義區",
      "address": "宏泰交易一號廣場台北市松仁路89-5號",
      "space_number": 75,
      "day_rate": 65.71428571428571,
      "night_rate": 0,
      "monthly_rate": 0,
      "source": "uspace",
      "building_type": "luckypa",
      "financial_class": "uspace_owned"
    },
    {
      "id": "2e5a176c-d614-4dc7-b291-2952860f7ddc",
      "name": "嵜本吐司旁地下月租車位",
      "lat": 25.042472,
      "lon": 121.565842,
      "city": "台北市",
      "district": "信義區",
      "address": "嵜本吐司旁地下月租車位台北市基隆路一段147巷轉角",
      "space_number": 0,
      "day_rate": 0,
      "night_rate": 0,
      "monthly_rate": 0,
      "source": "uspace",
      "building_type": "all",
      "financial_class": "uspace_owned"
    },
    {
      "id": "2ec33f4b-ef4f-4445-8613-9772cd160285",
      "name": "幸安市場鄰近車位",
      "lat": 25.040059392728097,
      "lon": 121.53126548239648,
      "city": "台北市",
      "district": "中正區",
      "address": "幸安市場鄰近車位台北市濟南路二段46號",
      "space_number": 0,
      "day_rate": 0,
      "night_rate": 0,
      "monthly_rate": 0,
      "source": "uspace",
      "building_type": "lock",
      "financial_class": "uspace_owned"
    },
    {
      "id": "2eee51b7-ac00-4b9b-b90d-f1e2cd759cbd",
      "name": "新店安忠路巷弄月租B場",
      "lat": 24.95839032367,
      "lon": 121.51259520468,
      "city": "新北市",
      "district": "新店區",
      "address": "新店安忠路巷弄月租B場新北市安忠路57巷26弄8號旁",
      "space_number": 12,
      "day_rate": 0,
      "night_rate": 0,
      "monthly_rate": 0,
      "source": "uspace",
      "building_type": "subway",
      "financial_class": "uspace_owned"
    },
    {
      "id": "2f29006d-ee88-40f8-9cb0-370e00b3e4e0",
      "name": "新生公園內車位 (新生北路×濱江街入口)",
      "lat": 25.070709140444,
      "lon": 121.52843480102,
      "city": "台北市",
      "district": "中山區",
      "address": "新生公園內車位 (新生北路×濱江街入口)台北市新生北路三段105號",
      "space_number": 7,
      "day_rate": 40.0,
      "night_rate": 0,
      "monthly_rate": 0,
      "source": "uspace",
      "building_type": "supernode",
      "financial_class": "uspace_owned"
    },
    {
      "id": "2f40c9f2-a527-45d3-a7ec-b258f86fb5ab",
      "name": "彰化光華街車位",
      "lat": 24.070254,
      "lon": 120.542772,
      "city": "彰化縣",
      "district": "彰化市",
      "address": "彰化光華街車位彰化縣光華街5號",
      "space_number": 0,
      "day_rate": 0,
      "night_rate": 0,
      "monthly_rate": 0,
      "source": "uspace",
      "building_type": "lock",
      "financial_class": "agent_owned"
    },
    {
      "id": "2fcfda94-28f2-44e2-b817-fba09801c73e",
      "name": "建成大廈平面車位",
      "lat": 25.04091,
      "lon": 121.550251,
      "city": "台北市",
      "district": "大安區",
      "address": "建成大廈平面車位台北市忠孝東路四段170巷6弄5號",
      "space_number": 4,
      "day_rate": 88.57142857142857,
      "night_rate": 10.0,
      "monthly_rate": 0,
      "source": "uspace",
      "building_type": "lock",
      "financial_class": "uspace_owned"
    },
    {
      "id": "2ffaf534-9adc-43d1-bc09-6f0b73cc9b92",
      "name": "復興公勇路口鄰近車位",
      "lat": 22.667649,
      "lon": 120.489107,
      "city": "屏東縣",
      "district": "屏東市",
      "address": "復興公勇路口鄰近車位屏東縣復興路",
      "space_number": 4,
      "day_rate": 20.0,
      "night_rate": 0,
      "monthly_rate": 0,
      "source": "uspace",
      "building_type": "lock",
      "financial_class": "uspace_owned"
    },
    {
      "id": "307c2dae-14fa-4b7c-b914-dc2cc44911e5",
      "name": "中壢松勇路車位",
      "lat": 24.960836,
      "lon": 121.165903,
      "city": "桃園市",
      "district": "中壢區",
      "address": "中壢松勇路車位桃園市松勇路172號",
      "space_number": 11,
      "day_rate": 28.0,
      "night_rate": 0,
      "monthly_rate": 0,
      "source": "uspace",
      "building_type": "supernode",
      "financial_class": "uspace_owned"
    },
    {
      "id": "30db94e5-1f8e-4afa-9b96-bbc7840cda46",
      "name": "湘誠葡萄酒車位",
      "lat": 25.043047427794,
      "lon": 121.55250622603,
      "city": "台北市",
      "district": "大安區",
      "address": "湘誠葡萄酒車位台北市忠孝東路四段223巷49弄6號",
      "space_number": 1,
      "day_rate": 75.71428571428571,
      "night_rate": 0,
      "monthly_rate": 0,
      "source": "uspace",
      "building_type": "supernode",
      "financial_class": "uspace_owned"
    },
    {
      "id": "3174094b-f363-4334-9b13-7f9de66933fd",
      "name": "USPACE 正大竹圍停車場",
      "lat": 25.141399,
      "lon": 121.4604479,
      "city": "新北市",
      "district": "淡水區",
      "address": "USPACE 正大竹圍停車場新北市民權路27號",
      "space_number": 12,
      "day_rate": 30.0,
      "night_rate": 10.0,
      "monthly_rate": 0,
      "source": "uspace",
      "building_type": "luckypa",
      "financial_class": "uspace_owned"
    },
    {
      "id": "3184e60b-e814-45f6-aaf8-6ceb950a78d1",
      "name": "伊通公園鄰近車位",
      "lat": 25.0496523,
      "lon": 121.5356358,
      "city": "台北市",
      "district": "中山區",
      "address": "伊通公園鄰近車位台北市建國北路一段88巷12號",
      "space_number": 1,
      "day_rate": 50.0,
      "night_rate": 30.0,
      "monthly_rate": 0,
      "source": "uspace",
      "building_type": "lock",
      "financial_class": "uspace_owned"
    },
    {
      "id": "3245bde4-ecf3-48b9-b695-0f607069d62a",
      "name": "師大禮居月租車位",
      "lat": 25.026877606120483,
      "lon": 121.52682763529164,
      "city": "台北市",
      "district": "大安區",
      "address": "師大禮居月租車位台北市和平東路一段",
      "space_number": 0,
      "day_rate": 28.0,
      "night_rate": 0,
      "monthly_rate": 0,
      "source": "uspace",
      "building_type": "subway",
      "financial_class": "uspace_owned"
    },
    {
      "id": "32bd5490-1e44-44a1-b32b-0c0271a573ba",
      "name": "USPACE華亞科學園區停車場",
      "lat": 25.050991805716,
      "lon": 121.37857604487,
      "city": "桃園市",
      "district": "龜山區",
      "address": "USPACE華亞科學園區停車場桃園市華亞二路9號",
      "space_number": 100,
      "day_rate": 50.0,
      "night_rate": 0,
      "monthly_rate": 0,
      "source": "uspace",
      "building_type": "luckypa",
      "financial_class": "uspace_owned"
    },
    {
      "id": "32d5365f-42a0-4d63-bcfa-5dd3c4c8cf05",
      "name": "內湖文德路鄰近車位",
      "lat": 25.07787920634912,
      "lon": 121.5811160893241,
      "city": "台北市",
      "district": "內湖區",
      "address": "內湖文德路鄰近車位台北市文德路66巷10弄7號",
      "space_number": 1,
      "day_rate": 40.0,
      "night_rate": 10.0,
      "monthly_rate": 0,
      "source": "uspace",
      "building_type": "lock",
      "financial_class": "uspace_owned"
    },
    {
      "id": "34e3fbab-dc67-402b-91fb-4e568030e697",
      "name": "福港街鄰近車位",
      "lat": 25.086001686973,
      "lon": 121.51685002153,
      "city": "台北市",
      "district": "士林區",
      "address": "福港街鄰近車位台北市福港街210巷17弄2號",
      "space_number": 2,
      "day_rate": 28.0,
      "night_rate": 0,
      "monthly_rate": 0,
      "source": "uspace",
      "building_type": "lock",
      "financial_class": "uspace_owned"
    },
    {
      "id": "35097bd7-20e1-4584-a794-baa4909307ad",
      "name": "惠中路超美停車場",
      "lat": 24.155163,
      "lon": 120.6409805,
      "city": "台中市",
      "district": "西屯區",
      "address": "惠中路超美停車場台中市惠中路二段57號",
      "space_number": 2,
      "day_rate": 32.857142857142854,
      "night_rate": 10.0,
      "monthly_rate": 0,
      "source": "uspace",
      "building_type": "lock",
      "financial_class": "agent_owned"
    },
    {
      "id": "350f88b7-d971-48ee-97e8-7a43e53a513e",
      "name": "羅馬東區地下停車場",
      "lat": 25.04206146600541,
      "lon": 121.55048164245557,
      "city": "台北市",
      "district": "大安區",
      "address": "羅馬東區地下停車場台北市忠孝東路四段181巷10弄",
      "space_number": 21,
      "day_rate": 74.28571428571429,
      "night_rate": 0,
      "monthly_rate": 0,
      "source": "uspace",
      "building_type": "luckypa",
      "financial_class": "uspace_owned"
    },
    {
      "id": "3534eaeb-23f7-4700-9302-0bf0414e9807",
      "name": "興進路與國豐路口車位",
      "lat": 24.1557921,
      "lon": 120.6957614,
      "city": "台中市",
      "district": "北區",
      "address": "興進路與國豐路口車位台中市興進路126號",
      "space_number": 3,
      "day_rate": 30.0,
      "night_rate": 10.0,
      "monthly_rate": 0,
      "source": "uspace",
      "building_type": "lock",
      "financial_class": "agent_owned"
    },
    {
      "id": "35379d13-dbae-471c-b653-38e2ae4e12fb",
      "name": "光復北路177巷車位",
      "lat": 25.05809574438,
      "lon": 121.55627693573,
      "city": "台北市",
      "district": "松山區",
      "address": "光復北路177巷車位台北市光復北路177巷17號",
      "space_number": 1,
      "day_rate": 42.857142857142854,
      "night_rate": 0,
      "monthly_rate": 0,
      "source": "uspace",
      "building_type": "lock",
      "financial_class": "uspace_owned"
    },
    {
      "id": "358239d6-9278-41e8-832a-11e93cd99cb0",
      "name": "應安168信義大安站",
      "lat": 25.0335409,
      "lon": 121.5461871,
      "city": "台北市",
      "district": "大安區",
      "address": "應安168信義大安站台北市信義路四段89之1號",
      "space_number": 16,
      "day_rate": 117.14285714285714,
      "night_rate": 40.0,
      "monthly_rate": 0,
      "source": "uspace",
      "building_type": "luckypa",
      "financial_class": "uspace_owned"
    },
    {
      "id": "35f0ce19-dbe9-48ae-8fb3-a25c8b8897a4",
      "name": "民生圓環鄰近車位",
      "lat": 25.059898645045138,
      "lon": 121.56408741445252,
      "city": "台北市",
      "district": "松山區",
      "address": "民生圓環鄰近車位台北市民生東路五段175號",
      "space_number": 1,
      "day_rate": 71.14285714285714,
      "night_rate": 30.0,
      "monthly_rate": 0,
      "source": "uspace",
      "building_type": "lock",
      "financial_class": "uspace_owned"
    },
    {
      "id": "362c15e2-5f85-4e24-8c45-6e9517f2bed5",
      "name": "USPACE民權社區停車場",
      "lat": 25.06185,
      "lon": 121.547912,
      "city": "台北市",
      "district": "松山區",
      "address": "USPACE民權社區停車場台北市民權東路三段160巷2-6號",
      "space_number": 25,
      "day_rate": 60.0,
      "night_rate": 28.0,
      "monthly_rate": 0,
      "source": "uspace",
      "building_type": "supernode",
      "financial_class": "uspace_owned"
    },
    {
      "id": "36e185f9-a2d4-4a51-8ba7-34d41528202b",
      "name": "瑞光場",
      "lat": 25.0703776,
      "lon": 121.5825805,
      "city": "台北市",
      "district": "內湖區",
      "address": "瑞光場台北市瑞光路38號",
      "space_number": 15,
      "day_rate": 28.0,
      "night_rate": 0,
      "monthly_rate": 0,
      "source": "uspace",
      "building_type": "lock",
      "financial_class": "uspace_owned"
    },
    {
      "id": "371454a7-3b92-44ae-8a6c-7de906bee018",
      "name": "福悠停車場一場",
      "lat": 24.17289,
      "lon": 120.648549,
      "city": "台中市",
      "district": "西屯區",
      "address": "福悠停車場一場台中市福星路666號對面",
      "space_number": 126,
      "day_rate": 55.714285714285715,
      "night_rate": 30.0,
      "monthly_rate": 0,
      "source": "uspace",
      "building_type": "luckypa",
      "financial_class": "uspace_owned"
    },
    {
      "id": "37471018-6055-4078-8884-0cc357fc39ad",
      "name": "民權社區B1戶外車位",
      "lat": 25.0613481,
      "lon": 121.5475669,
      "city": "台北市",
      "district": "松山區",
      "address": "民權社區B1戶外車位台北市民權東路三段106巷3弄22號",
      "space_number": 3,
      "day_rate": 50.0,
      "night_rate": 0,
      "monthly_rate": 0,
      "source": "uspace",
      "building_type": "supernode",
      "financial_class": "uspace_owned"
    },
    {
      "id": "37771344-5587-4748-91d6-cc4229e4412f",
      "name": "社子通河西街二段29號旁車位",
      "lat": 25.08970423690368,
      "lon": 121.5114658211242,
      "city": "台北市",
      "district": "士林區",
      "address": "社子通河西街二段29號旁車位台北市通河西街二段29號旁",
      "space_number": 6,
      "day_rate": 20.0,
      "night_rate": 0,
      "monthly_rate": 0,
      "source": "uspace",
      "building_type": "lock",
      "financial_class": "uspace_owned"
    },
    {
      "id": "383d2fd1-7fcd-426b-b320-544198c2103d",
      "name": "巴克禮和睦居",
      "lat": 22.969339,
      "lon": 120.220972,
      "city": "台南市",
      "district": "東區",
      "address": "巴克禮和睦居台南市崇賢六路九號",
      "space_number": 54,
      "day_rate": 20.0,
      "night_rate": 0,
      "monthly_rate": 0,
      "source": "uspace",
      "building_type": "recognition",
      "financial_class": "uspace_owned"
    },
    {
      "id": "387ec265-a772-40b7-8f40-0f5276d8dba8",
      "name": "忠孝東路251巷車位",
      "lat": 25.0436696,
      "lon": 121.5412143,
      "city": "台北市",
      "district": "大安區",
      "address": "忠孝東路251巷車位台北市忠孝東路三段251巷12弄7號",
      "space_number": 1,
      "day_rate": 40.0,
      "night_rate": 30.0,
      "monthly_rate": 0,
      "source": "uspace",
      "building_type": "supernode",
      "financial_class": "uspace_owned"
    },
    {
      "id": "38e93e4a-464e-4168-a2c9-1c7c0ae4574d",
      "name": "金馬彰美(吾所飾室)停車格",
      "lat": 24.090907,
      "lon": 120.53573,
      "city": "彰化縣",
      "district": "彰化市",
      "address": "金馬彰美(吾所飾室)停車格彰化縣金馬路二段708號",
      "space_number": 5,
      "day_rate": 20.0,
      "night_rate": 10.0,
      "monthly_rate": 0,
      "source": "uspace",
      "building_type": "lock",
      "financial_class": "agent_owned"
    },
    {
      "id": "394ddd6e-96d6-4155-9505-b3ac0d84ec47",
      "name": "USPACE新莊中央二場",
      "lat": 25.0580282,
      "lon": 121.4478988,
      "city": "新北市",
      "district": "新莊區",
      "address": "USPACE新莊中央二場新北市中央路437號",
      "space_number": 37,
      "day_rate": 60.0,
      "night_rate": 0,
      "monthly_rate": 0,
      "source": "uspace",
      "building_type": "luckypa",
      "financial_class": "uspace_owned"
    },
    {
      "id": "394eb27c-230e-4793-bac4-449a4e7a13c4",
      "name": "潮州古亭站",
      "lat": 25.028768153177,
      "lon": 121.52233631158,
      "city": "台北市",
      "district": "大安區",
      "address": "潮州古亭站台北市潮州街26巷18號",
      "space_number": 4,
      "day_rate": 42.857142857142854,
      "night_rate": 10.0,
      "monthly_rate": 0,
      "source": "uspace",
      "building_type": "lock",
      "financial_class": "uspace_owned"
    },
    {
      "id": "398cc916-40a3-4bd8-995e-780d2bfda76a",
      "name": "頂好名店城二場(大安路一段75巷)",
      "lat": 25.04216,
      "lon": 121.547972,
      "city": "台北市",
      "district": "大安區",
      "address": "頂好名店城二場(大安路一段75巷)台北市大安路一段75巷29號",
      "space_number": 8,
      "day_rate": 78.57142857142857,
      "night_rate": 10.0,
      "monthly_rate": 0,
      "source": "uspace",
      "building_type": "supernode",
      "financial_class": "uspace_owned"
    },
    {
      "id": "39b7b04f-184c-4033-bc2d-b82b43eff9c0",
      "name": "優境里寧停車位",
      "lat": 24.148347,
      "lon": 120.641936,
      "city": "台中市",
      "district": "南屯區",
      "address": "優境里寧停車位台中市大川街122號",
      "space_number": 9,
      "day_rate": 10.714285714285714,
      "night_rate": 0,
      "monthly_rate": 0,
      "source": "uspace",
      "building_type": "lock",
      "financial_class": "agent_owned"
    },
    {
      "id": "39ec3ea2-b409-4fca-8c44-18accca9542c",
      "name": "沙鹿東晉一街車位",
      "lat": 24.219999,
      "lon": 120.578096,
      "city": "台中市",
      "district": "沙鹿區",
      "address": "沙鹿東晉一街車位台中市東晉一街11號",
      "space_number": 20,
      "day_rate": 30.0,
      "night_rate": 0,
      "monthly_rate": 0,
      "source": "uspace",
      "building_type": "subway",
      "financial_class": "agent_owned"
    },
    {
      "id": "39f4d788-bf2a-4549-a314-d827c8ef5858",
      "name": "徐匯中學臨近車位",
      "lat": 25.0805299,
      "lon": 121.4740834,
      "city": "新北市",
      "district": "蘆洲區",
      "address": "徐匯中學臨近車位新北市中山一路197巷4弄21號",
      "space_number": 2,
      "day_rate": 30.0,
      "night_rate": 0,
      "monthly_rate": 0,
      "source": "uspace",
      "building_type": "lock",
      "financial_class": "uspace_owned"
    },
    {
      "id": "3a0d301b-558e-4257-b6c8-593e781da738",
      "name": "唐采文具民權育德車位",
      "lat": 24.157571,
      "lon": 120.670372,
      "city": "台中市",
      "district": "北區",
      "address": "唐采文具民權育德車位台中市民權路399號",
      "space_number": 5,
      "day_rate": 30.0,
      "night_rate": 10.0,
      "monthly_rate": 0,
      "source": "uspace",
      "building_type": "lock",
      "financial_class": "agent_owned"
    },
    {
      "id": "3aa114a5-b76c-4a7a-bafd-fbcca7b2ef3d",
      "name": "蘆洲環堤大道月租車位",
      "lat": 25.08932,
      "lon": 121.456055,
      "city": "新北市",
      "district": "蘆洲區",
      "address": "蘆洲環堤大道月租車位新北市環堤大道166號",
      "space_number": 0,
      "day_rate": 0,
      "night_rate": 0,
      "monthly_rate": 0,
      "source": "uspace",
      "building_type": "subway",
      "financial_class": "uspace_owned"
    },
    {
      "id": "3aead747-0374-42cb-8e91-daa037686cf5",
      "name": "士林夜市鄰近車位",
      "lat": 25.0835603,
      "lon": 121.5220741,
      "city": "台北市",
      "district": "士林區",
      "address": "士林夜市鄰近車位台北市劍潭路48號",
      "space_number": 1,
      "day_rate": 40.0,
      "night_rate": 0,
      "monthly_rate": 0,
      "source": "uspace",
      "building_type": "lock",
      "financial_class": "uspace_owned"
    },
    {
      "id": "3c0e0563-b3a3-487e-9423-916bca8bf577",
      "name": "湖光國宅22巷車位",
      "lat": 25.0762634,
      "lon": 121.5792825,
      "city": "台北市",
      "district": "內湖區",
      "address": "湖光國宅22巷車位台北市文德路22巷53弄19號",
      "space_number": 1,
      "day_rate": 30.0,
      "night_rate": 0,
      "monthly_rate": 0,
      "source": "uspace",
      "building_type": "lock",
      "financial_class": "uspace_owned"
    },
    {
      "id": "3c57768a-96af-4364-bc5a-9cc36cb49854",
      "name": "西苑二街鄰近車位",
      "lat": 24.184356975974,
      "lon": 120.63765684082,
      "city": "台中市",
      "district": "西屯區",
      "address": "西苑二街鄰近車位台中市西苑二街178號",
      "space_number": 18,
      "day_rate": 60.0,
      "night_rate": 0,
      "monthly_rate": 0,
      "source": "uspace",
      "building_type": "subway",
      "financial_class": "agent_owned"
    },
    {
      "id": "3c8b24a6-3809-4ae2-9c42-cacf4ca2b38a",
      "name": "客家廚房車位",
      "lat": 25.053854,
      "lon": 121.5474,
      "city": "台北市",
      "district": "松山區",
      "address": "客家廚房車位台北市敦化北路120巷20號",
      "space_number": 2,
      "day_rate": 80.0,
      "night_rate": 0,
      "monthly_rate": 0,
      "source": "uspace",
      "building_type": "supernode",
      "financial_class": "uspace_owned"
    },
    {
      "id": "3c91101b-5dae-408f-b78c-6c6e4a680132",
      "name": "西區均安街車位",
      "lat": 24.147975,
      "lon": 120.67196,
      "city": "台中市",
      "district": "西區",
      "address": "西區均安街車位台中市均安街131巷38號",
      "space_number": 6,
      "day_rate": 40.0,
      "night_rate": 20.0,
      "monthly_rate": 0,
      "source": "uspace",
      "building_type": "lock",
      "financial_class": "agent_owned"
    },
    {
      "id": "3d430984-48e2-4174-9b17-56d3c264a5db",
      "name": "民生圓環建成花園",
      "lat": 25.058639130312,
      "lon": 121.56481829429,
      "city": "台北市",
      "district": "松山區",
      "address": "民生圓環建成花園台北市民生東路五段206號",
      "space_number": 1,
      "day_rate": 28.0,
      "night_rate": 0,
      "monthly_rate": 0,
      "source": "uspace",
      "building_type": "luckypa",
      "financial_class": "uspace_owned"
    },
    {
      "id": "3dcceaea-b3da-4e44-bf16-ed60acaa16f2",
      "name": "臨沂榮譽站",
      "lat": 25.035607625866,
      "lon": 121.53057695267,
      "city": "台北市",
      "district": "中正區",
      "address": "臨沂榮譽站台北市臨沂街63巷23號",
      "space_number": 6,
      "day_rate": 42.857142857142854,
      "night_rate": 10.0,
      "monthly_rate": 0,
      "source": "uspace",
      "building_type": "lock",
      "financial_class": "uspace_owned"
    },
    {
      "id": "3e2a3a83-6a80-473f-afb7-0d27218500dc",
      "name": "USPACE仁愛帝寶站(B1月租區)",
      "lat": 25.0393163,
      "lon": 121.5375072,
      "city": "台北市",
      "district": "大安區",
      "address": "USPACE仁愛帝寶站(B1月租區)台北市建國南路一段222號",
      "space_number": 105,
      "day_rate": 28.0,
      "night_rate": 0,
      "monthly_rate": 0,
      "source": "uspace",
      "building_type": "luckypa",
      "financial_class": "uspace_owned"
    },
    {
      "id": "3e7ea297-d6bb-4844-aa50-812f2b9a079d",
      "name": "遼寧夜市鄰近車位",
      "lat": 25.0505384,
      "lon": 121.5424075,
      "city": "台北市",
      "district": "中山區",
      "address": "遼寧夜市鄰近車位台北市遼寧街101巷3號",
      "space_number": 1,
      "day_rate": 51.42857142857143,
      "night_rate": 0,
      "monthly_rate": 0,
      "source": "uspace",
      "building_type": "lock",
      "financial_class": "uspace_owned"
    },
    {
      "id": "3ef6649b-a138-413d-a2e3-6d4dcf3be2c3",
      "name": "USPACE北投晶泉丰旅停車場",
      "lat": 25.137871662719192,
      "lon": 121.50435190321456,
      "city": "台北市",
      "district": "北投區",
      "address": "USPACE北投晶泉丰旅停車場台北市泉源路19號",
      "space_number": 115,
      "day_rate": 64.28571428571429,
      "night_rate": 0,
      "monthly_rate": 0,
      "source": "uspace",
      "building_type": "luckypa",
      "financial_class": "uspace_owned"
    },
    {
      "id": "3f25cf43-b682-4ee4-9a6a-981ab4c6e554",
      "name": "敦富十二街停車位",
      "lat": 24.195246,
      "lon": 120.706231,
      "city": "台中市",
      "district": "北屯區",
      "address": "敦富十二街停車位台中市南興路1001號對面",
      "space_number": 8,
      "day_rate": 5.0,
      "night_rate": 0,
      "monthly_rate": 0,
      "source": "uspace",
      "building_type": "lock",
      "financial_class": "agent_owned"
    },
    {
      "id": "3fcb88f4-e1d5-4dcc-aa36-f4ec259ac5a6",
      "name": "舒服生活咖啡廳絕美車位",
      "lat": 25.0325621,
      "lon": 121.5508979,
      "city": "台北市",
      "district": "大安區",
      "address": "舒服生活咖啡廳絕美車位台北市敦化南路二段11巷42號對面",
      "space_number": 2,
      "day_rate": 55.714285714285715,
      "night_rate": 30.0,
      "monthly_rate": 0,
      "source": "uspace",
      "building_type": "lock",
      "financial_class": "uspace_owned"
    },
    {
      "id": "4075b2c1-3e92-47df-a8bc-6446338ad6a9",
      "name": "石牌路二段357巷車位",
      "lat": 25.124086095034,
      "lon": 121.52539063538,
      "city": "台北市",
      "district": "北投區",
      "address": "石牌路二段357巷車位台北市石牌路二段357巷15號",
      "space_number": 1,
      "day_rate": 20.0,
      "night_rate": 10.0,
      "monthly_rate": 0,
      "source": "uspace",
      "building_type": "lock",
      "financial_class": "uspace_owned"
    },
    {
      "id": "40e8d0c6-8c58-45ce-bec9-c18447ba2c25",
      "name": "USPACE 正大竹圍後棟(月租專區)",
      "lat": 25.1414,
      "lon": 121.459823,
      "city": "新北市",
      "district": "淡水區",
      "address": "USPACE 正大竹圍後棟(月租專區)新北市民權路27號",
      "space_number": 0,
      "day_rate": 0,
      "night_rate": 0,
      "monthly_rate": 0,
      "source": "uspace",
      "building_type": "subway",
      "financial_class": "uspace_owned"
    },
    {
      "id": "41e6a97b-b750-4623-a138-20e323bda74d",
      "name": "桃園忠勇二街月租車位(柵欄外)",
      "lat": 24.9661119,
      "lon": 121.3039173,
      "city": "桃園市",
      "district": "八德區",
      "address": "桃園忠勇二街月租車位(柵欄外)桃園市忠勇二街103號",
      "space_number": 0,
      "day_rate": 28.0,
      "night_rate": 0,
      "monthly_rate": 0,
      "source": "uspace",
      "building_type": "all",
      "financial_class": "uspace_owned"
    },
    {
      "id": "42558c24-8a2e-4654-a679-5b3c5d7b72f2",
      "name": "USPACE國家企業中心 B3月租區",
      "lat": 25.050846,
      "lon": 121.564138,
      "city": "台北市",
      "district": "松山區",
      "address": "USPACE國家企業中心 B3月租區台北市南京東路五段188號B3",
      "space_number": 0,
      "day_rate": 28.0,
      "night_rate": 0,
      "monthly_rate": 0,
      "source": "uspace",
      "building_type": "luckypa",
      "financial_class": "uspace_owned"
    },
    {
      "id": "42cbd271-3171-4fdb-8ab1-d90a3b4e96f9",
      "name": "林口來來亭力行場",
      "lat": 25.0761902,
      "lon": 121.3657787,
      "city": "新北市",
      "district": "林口區",
      "address": "林口來來亭力行場新北市文化北路一段412巷78號",
      "space_number": 20,
      "day_rate": 20.0,
      "night_rate": 0,
      "monthly_rate": 0,
      "source": "uspace",
      "building_type": "subway",
      "financial_class": "uspace_owned"
    },
    {
      "id": "42e31473-5d60-41b5-a736-5b8327e010cf",
      "name": "麥帥一橋旁月租車位(明華南京)",
      "lat": 25.051133,
      "lon": 121.569529,
      "city": "台北市",
      "district": "松山區",
      "address": "麥帥一橋旁月租車位(明華南京)台北市南京東路五段348號",
      "space_number": 0,
      "day_rate": 28.0,
      "night_rate": 0,
      "monthly_rate": 0,
      "source": "uspace",
      "building_type": "aiguard",
      "financial_class": "uspace_owned"
    },
    {
      "id": "42f7c2f5-b08a-45c0-91f7-d293501cac10",
      "name": "道周醫院(側門)",
      "lat": 24.1105292,
      "lon": 120.491456,
      "city": "彰化縣",
      "district": "和美鎮",
      "address": "道周醫院(側門)彰化縣和光路180號",
      "space_number": 2,
      "day_rate": 20.0,
      "night_rate": 20.0,
      "monthly_rate": 0,
      "source": "uspace",
      "building_type": "lock",
      "financial_class": "agent_owned"
    },
    {
      "id": "4322ef48-16fb-49f0-b6dc-04512ecbadb1",
      "name": "信義四維精華車位",
      "lat": 25.0322087,
      "lon": 121.5478993,
      "city": "台北市",
      "district": "大安區",
      "address": "信義四維精華車位台北市四維路118號",
      "space_number": 7,
      "day_rate": 54.285714285714285,
      "night_rate": 10.0,
      "monthly_rate": 0,
      "source": "uspace",
      "building_type": "lock",
      "financial_class": "uspace_owned"
    },
    {
      "id": "43247756-64b1-481c-b31e-8ca27b623962",
      "name": "中和中山路車位",
      "lat": 25.007753,
      "lon": 121.500619,
      "city": "新北市",
      "district": "中和區",
      "address": "中和中山路車位新北市中山路二段2巷89號",
      "space_number": 2,
      "day_rate": 35.0,
      "night_rate": 0,
      "monthly_rate": 0,
      "source": "uspace",
      "building_type": "lock",
      "financial_class": "uspace_owned"
    },
    {
      "id": "4348f11b-5800-4c59-9ac6-0b9c3bf53845",
      "name": "中南大廈",
      "lat": 25.036603,
      "lon": 121.544303,
      "city": "台北市",
      "district": "大安區",
      "address": "中南大廈台北市仁愛路四段8巷31號",
      "space_number": 11,
      "day_rate": 42.857142857142854,
      "night_rate": 10.0,
      "monthly_rate": 0,
      "source": "uspace",
      "building_type": "supernode",
      "financial_class": "uspace_owned"
    },
    {
      "id": "435644dc-0271-4a0f-8f16-1d616db31d1d",
      "name": "潭子勝利五街停車位",
      "lat": 24.208909,
      "lon": 120.700324,
      "city": "台中市",
      "district": "潭子區",
      "address": "潭子勝利五街停車位台中市勝利五街23號旁",
      "space_number": 13,
      "day_rate": 0,
      "night_rate": 0,
      "monthly_rate": 0,
      "source": "uspace",
      "building_type": "subway",
      "financial_class": "agent_owned"
    },
    {
      "id": "438c5eb3-c1c8-4e35-915a-ed2c1ba26aac",
      "name": "國興社區戶外車位",
      "lat": 25.024591,
      "lon": 121.508906,
      "city": "台北市",
      "district": "萬華區",
      "address": "國興社區戶外車位台北市國興路22號",
      "space_number": 20,
      "day_rate": 29.714285714285715,
      "night_rate": 0,
      "monthly_rate": 0,
      "source": "uspace",
      "building_type": "lock",
      "financial_class": "uspace_owned"
    },
    {
      "id": "440c764f-6ab8-4169-bb77-47f8f26967b8",
      "name": "禾榮仁春停車場",
      "lat": 22.705471,
      "lon": 120.349405,
      "city": "高雄市",
      "district": "仁武區",
      "address": "禾榮仁春停車場高雄市水管路二段與仁春街口（仁武區仁春段797地號）",
      "space_number": 112,
      "day_rate": 20.0,
      "night_rate": 0,
      "monthly_rate": 0,
      "source": "uspace",
      "building_type": "subway",
      "financial_class": "uspace_owned"
    },
    {
      "id": "44f88a6d-f476-4c63-90b7-4a43a0b70650",
      "name": "中山北路車位(吉松日本料理旁)",
      "lat": 25.0562675,
      "lon": 121.5217642,
      "city": "台北市",
      "district": "中山區",
      "address": "中山北路車位(吉松日本料理旁)台北市中山北路二段50巷13號之2",
      "space_number": 2,
      "day_rate": 44.285714285714285,
      "night_rate": 10.0,
      "monthly_rate": 0,
      "source": "uspace",
      "building_type": "lock",
      "financial_class": "uspace_owned"
    },
    {
      "id": "461c8751-c978-4e3c-95ae-7cb4bb6b8b1f",
      "name": "富邦高雄金融中心",
      "lat": 22.6320637,
      "lon": 120.3130088,
      "city": "高雄市",
      "district": "新興區",
      "address": "富邦高雄金融中心高雄市六合一路1號",
      "space_number": 0,
      "day_rate": 28.0,
      "night_rate": 0,
      "monthly_rate": 0,
      "source": "uspace",
      "building_type": "luckypa",
      "financial_class": "uspace_owned"
    },
    {
      "id": "4637ac67-542d-4b95-885a-b2f584018c4e",
      "name": "極美山莊富山路車位",
      "lat": 24.99006063132479,
      "lon": 121.55271214233532,
      "city": "台北市",
      "district": "文山區",
      "address": "極美山莊富山路車位台北市富山路",
      "space_number": 4,
      "day_rate": 22.857142857142858,
      "night_rate": 0,
      "monthly_rate": 0,
      "source": "uspace",
      "building_type": "lock",
      "financial_class": "uspace_owned"
    },
    {
      "id": "463f3e1f-575f-4280-83de-15030d803552",
      "name": "安和路兆豐銀行鄰近車位",
      "lat": 25.030255769879,
      "lon": 121.55244505894,
      "city": "台北市",
      "district": "大安區",
      "address": "安和路兆豐銀行鄰近車位台北市安和路二段73號",
      "space_number": 2,
      "day_rate": 58.57142857142857,
      "night_rate": 20.0,
      "monthly_rate": 0,
      "source": "uspace",
      "building_type": "lock",
      "financial_class": "uspace_owned"
    },
    {
      "id": "46ae1743-a7da-4fe9-8954-9527b18f5118",
      "name": "三德大飯店(右側)",
      "lat": 25.0647678,
      "lon": 121.5185812,
      "city": "台北市",
      "district": "大同區",
      "address": "三德大飯店(右側)台北市承德路三段47號",
      "space_number": 8,
      "day_rate": 40.0,
      "night_rate": 0,
      "monthly_rate": 0,
      "source": "uspace",
      "building_type": "supernode",
      "financial_class": "uspace_owned"
    },
    {
      "id": "46e9b6f8-7405-4d6a-a76e-8974f68b95f1",
      "name": "大安森林公園(近新生南路)",
      "lat": 25.0346447,
      "lon": 121.5337743,
      "city": "台北市",
      "district": "大安區",
      "address": "大安森林公園(近新生南路)台北市新生南路一段161巷3號",
      "space_number": 2,
      "day_rate": 71.42857142857143,
      "night_rate": 0,
      "monthly_rate": 0,
      "source": "uspace",
      "building_type": "lock",
      "financial_class": "uspace_owned"
    },
    {
      "id": "47049197-0a5a-4294-9114-b3e7c6976a37",
      "name": "明輝商業大樓1F平面車位",
      "lat": 25.053527,
      "lon": 121.543578,
      "city": "台北市",
      "district": "中山區",
      "address": "明輝商業大樓1F平面車位台北市復興北路164號",
      "space_number": 2,
      "day_rate": 50.0,
      "night_rate": 0,
      "monthly_rate": 0,
      "source": "uspace",
      "building_type": "lock",
      "financial_class": "uspace_owned"
    },
    {
      "id": "474fee79-a9f6-4c13-aedc-2baf06ac88a3",
      "name": "大安區寵物生活館車位",
      "lat": 25.0361935,
      "lon": 121.5482164,
      "city": "台北市",
      "district": "大安區",
      "address": "大安區寵物生活館車位台北市四維路17號",
      "space_number": 1,
      "day_rate": 60.0,
      "night_rate": 30.0,
      "monthly_rate": 0,
      "source": "uspace",
      "building_type": "lock",
      "financial_class": "uspace_owned"
    },
    {
      "id": "47865ab8-1380-40af-a12a-7ec97d534c08",
      "name": "松山八德路易莎車位",
      "lat": 25.050319452349,
      "lon": 121.58089614645,
      "city": "台北市",
      "district": "南港區",
      "address": "松山八德路易莎車位台北市八德路四段768巷1弄8號",
      "space_number": 1,
      "day_rate": 34.285714285714285,
      "night_rate": 0,
      "monthly_rate": 0,
      "source": "uspace",
      "building_type": "lock",
      "financial_class": "uspace_owned"
    },
    {
      "id": "47be5819-b479-4a73-bd2e-f41db163c1a2",
      "name": "合江錦州街鄰近車位",
      "lat": 25.060801,
      "lon": 121.537815,
      "city": "台北市",
      "district": "中山區",
      "address": "合江錦州街鄰近車位台北市合江街170巷19號",
      "space_number": 2,
      "day_rate": 50.0,
      "night_rate": 0,
      "monthly_rate": 0,
      "source": "uspace",
      "building_type": "lock",
      "financial_class": "uspace_owned"
    },
    {
      "id": "47db8489-6d5c-4bc1-86ce-c320835265ee",
      "name": "馬偕醫院鄰近車位",
      "lat": 25.057526,
      "lon": 121.522457,
      "city": "台北市",
      "district": "中山區",
      "address": "馬偕醫院鄰近車位台北市中山北路二段84巷6號",
      "space_number": 1,
      "day_rate": 50.0,
      "night_rate": 0,
      "monthly_rate": 0,
      "source": "uspace",
      "building_type": "lock",
      "financial_class": "uspace_owned"
    },
    {
      "id": "4b4fcbf2-35d9-4b37-b8d8-ca63454e206d",
      "name": "長安國小鄰近車位",
      "lat": 25.049025,
      "lon": 121.531092,
      "city": "台北市",
      "district": "中山區",
      "address": "長安國小鄰近車位台北市松江路64巷22號",
      "space_number": 2,
      "day_rate": 30.0,
      "night_rate": 0,
      "monthly_rate": 0,
      "source": "uspace",
      "building_type": "lock",
      "financial_class": "uspace_owned"
    },
    {
      "id": "4bd60e64-1683-4aa3-a44f-1027cc884128",
      "name": "三重安慶街1樓室內車位",
      "lat": 25.0677154,
      "lon": 121.4912169,
      "city": "新北市",
      "district": "三重區",
      "address": "三重安慶街1樓室內車位新北市安慶街246、248號",
      "space_number": 2,
      "day_rate": 30.0,
      "night_rate": 0,
      "monthly_rate": 0,
      "source": "uspace",
      "building_type": "lock",
      "financial_class": "uspace_owned"
    },
    {
      "id": "4c358827-b296-4143-99f3-d88c19758792",
      "name": "新北市政府行政大樓地下共享停車場(B3)",
      "lat": 25.012608384316,
      "lon": 121.4650396699,
      "city": "新北市",
      "district": "板橋區",
      "address": "新北市政府行政大樓地下共享停車場(B3)新北市中山路一段161號",
      "space_number": 1,
      "day_rate": 0,
      "night_rate": 0,
      "monthly_rate": 0,
      "source": "uspace",
      "building_type": "supernode",
      "financial_class": "uspace_owned"
    },
    {
      "id": "4ce57e3e-4f2d-4412-8b4f-ca364e99d1ac",
      "name": "到場手工洗車訂閱服務",
      "lat": 25.0577125,
      "lon": 121.5430245,
      "city": "台北市",
      "district": "中山區",
      "address": "到場手工洗車訂閱服務台北市民生東路三段",
      "space_number": 0,
      "day_rate": 0,
      "night_rate": 0,
      "monthly_rate": 0,
      "source": "uspace",
      "building_type": "lock",
      "financial_class": "uspace_owned"
    },
    {
      "id": "4cff8b46-d758-48bf-a756-7e820ae1d928",
      "name": "成功郵局鄰近車位",
      "lat": 25.025716995982,
      "lon": 121.54518963236,
      "city": "台北市",
      "district": "大安區",
      "address": "成功郵局鄰近車位台北市和平東路二段311巷59號",
      "space_number": 33,
      "day_rate": 60.0,
      "night_rate": 20.0,
      "monthly_rate": 0,
      "source": "uspace",
      "building_type": "lock",
      "financial_class": "uspace_owned"
    },
    {
      "id": "4d171dd2-b75d-43f0-b8d5-f517acfed2b5",
      "name": "同安國小旁車位",
      "lat": 25.02224,
      "lon": 121.299348,
      "city": "桃園市",
      "district": "桃園區",
      "address": "同安國小旁車位桃園市同安街560號",
      "space_number": 10,
      "day_rate": 32.857142857142854,
      "night_rate": 0,
      "monthly_rate": 0,
      "source": "uspace",
      "building_type": "supernode",
      "financial_class": "uspace_owned"
    },
    {
      "id": "4d21d043-e90e-48e4-b5b1-edeab3e98c48",
      "name": "USPACE台新人壽大樓",
      "lat": 25.052022,
      "lon": 121.5620323,
      "city": "台北市",
      "district": "松山區",
      "address": "USPACE台新人壽大樓台北市南京東路五段161號",
      "space_number": 118,
      "day_rate": 50.0,
      "night_rate": 0,
      "monthly_rate": 0,
      "source": "uspace",
      "building_type": "luckypa",
      "financial_class": "uspace_owned"
    },
    {
      "id": "4d82ce19-dcd1-4a30-9faf-667a588ec96a",
      "name": "市民大道二段精華車位",
      "lat": 25.047258,
      "lon": 121.528185,
      "city": "台北市",
      "district": "中山區",
      "address": "市民大道二段精華車位台北市長安東路一段52巷9弄1-1號",
      "space_number": 0,
      "day_rate": 0,
      "night_rate": 0,
      "monthly_rate": 0,
      "source": "uspace",
      "building_type": "lock",
      "financial_class": "uspace_owned"
    },
    {
      "id": "4d988c2b-406d-4a17-92d2-d9746dc81253",
      "name": "林森華國車位(23巷)",
      "lat": 25.065857651912456,
      "lon": 121.52529850393262,
      "city": "台北市",
      "district": "中山區",
      "address": "林森華國車位(23巷)台北市雙城街23巷20號",
      "space_number": 5,
      "day_rate": 50.0,
      "night_rate": 40.0,
      "monthly_rate": 0,
      "source": "uspace",
      "building_type": "lock",
      "financial_class": "uspace_owned"
    },
    {
      "id": "4db558f0-3941-44f2-ad52-24d646096610",
      "name": "USPACE富邦敦北大樓",
      "lat": 25.045587,
      "lon": 121.5483734,
      "city": "臺北市",
      "district": "松山區",
      "address": "USPACE富邦敦北大樓臺北市敦化南路1段108號",
      "space_number": 83,
      "day_rate": 40.0,
      "night_rate": 0,
      "monthly_rate": 0,
      "source": "uspace",
      "building_type": "luckypa",
      "financial_class": "uspace_owned"
    },
    {
      "id": "4ea13f66-2258-4a9f-a1ef-a2f5ec40396e",
      "name": "市政府捷運站臨近車位",
      "lat": 25.041613888916,
      "lon": 121.56605903657,
      "city": "台北市",
      "district": "信義區",
      "address": "市政府捷運站臨近車位台北市忠孝東路五段31巷18弄19號",
      "space_number": 10,
      "day_rate": 58.57142857142857,
      "night_rate": 0,
      "monthly_rate": 0,
      "source": "uspace",
      "building_type": "supernode",
      "financial_class": "uspace_owned"
    },
    {
      "id": "4f2733c6-d80e-48f0-8b09-5650e1fff8ae",
      "name": "鹿港柑仔店精華車位",
      "lat": 24.9920696,
      "lon": 121.4564008,
      "city": "新北市",
      "district": "土城區",
      "address": "鹿港柑仔店精華車位新北市廣興街14號",
      "space_number": 2,
      "day_rate": 30.0,
      "night_rate": 0,
      "monthly_rate": 0,
      "source": "uspace",
      "building_type": "lock",
      "financial_class": "uspace_owned"
    },
    {
      "id": "4f3c8a2a-0522-4d46-a97b-37942a066711",
      "name": "USPACE中油福林站一場",
      "lat": 25.092602,
      "lon": 121.52743,
      "city": "台北市",
      "district": "士林區",
      "address": "USPACE中油福林站一場台北市中山北路五段",
      "space_number": 47,
      "day_rate": 55.714285714285715,
      "night_rate": 0,
      "monthly_rate": 0,
      "source": "uspace",
      "building_type": "luckypa",
      "financial_class": "uspace_owned"
    },
    {
      "id": "4fa97453-8f16-4dd7-a007-cb260fd16cbb",
      "name": "忠勇一街好好停",
      "lat": 24.965658,
      "lon": 121.305088,
      "city": "桃園市",
      "district": "八德區",
      "address": "忠勇一街好好停桃園市忠勇一街72號",
      "space_number": 5,
      "day_rate": 20.0,
      "night_rate": 0,
      "monthly_rate": 0,
      "source": "uspace",
      "building_type": "lock",
      "financial_class": "uspace_owned"
    },
    {
      "id": "5000e3df-ae74-4646-a580-eabd29329bd1",
      "name": "員山路精華車位(辰淵合作)",
      "lat": 25.00676,
      "lon": 121.48066,
      "city": "新北市",
      "district": "中和區",
      "address": "員山路精華車位(辰淵合作)新北市員山路466巷19號",
      "space_number": 6,
      "day_rate": 40.0,
      "night_rate": 0,
      "monthly_rate": 0,
      "source": "uspace",
      "building_type": "lock",
      "financial_class": "uspace_owned"
    },
    {
      "id": "5053da60-caf6-4b9c-9d4e-8443a39e5349",
      "name": "現代美典停車場",
      "lat": 24.0718967,
      "lon": 120.5391977,
      "city": "彰化縣",
      "district": "彰化市",
      "address": "現代美典停車場彰化縣民族路267號",
      "space_number": 7,
      "day_rate": 28.0,
      "night_rate": 0,
      "monthly_rate": 0,
      "source": "uspace",
      "building_type": "subway",
      "financial_class": "agent_owned"
    },
    {
      "id": "50a25218-3111-4278-ac91-c7897bbe939c",
      "name": "仁和大廈",
      "lat": 25.038464,
      "lon": 121.551238,
      "city": "台北市",
      "district": "大安區",
      "address": "仁和大廈台北市安和路一段49巷5號",
      "space_number": 3,
      "day_rate": 75.71428571428571,
      "night_rate": 10.0,
      "monthly_rate": 0,
      "source": "uspace",
      "building_type": "supernode",
      "financial_class": "uspace_owned"
    },
    {
      "id": "50bbb0f7-c4ff-42f0-aade-932c16eb17f2",
      "name": "廣興街有棚車位",
      "lat": 24.99214,
      "lon": 121.456724,
      "city": "新北市",
      "district": "土城區",
      "address": "廣興街有棚車位新北市廣興街2號",
      "space_number": 1,
      "day_rate": 20.0,
      "night_rate": 0,
      "monthly_rate": 0,
      "source": "uspace",
      "building_type": "lock",
      "financial_class": "uspace_owned"
    },
    {
      "id": "51090a28-47f8-4024-91b6-96e642dcd459",
      "name": "C11世正南軟大樓(B2汽車臨停區、B3卸貨區)",
      "lat": 25.0571105,
      "lon": 121.614302,
      "city": "台北市",
      "district": "南港區",
      "address": "C11世正南軟大樓(B2汽車臨停區、B3卸貨區)台北市三重路66號B2",
      "space_number": 47,
      "day_rate": 30.0,
      "night_rate": 0,
      "monthly_rate": 0,
      "source": "uspace",
      "building_type": "luckypa",
      "financial_class": "uspace_owned"
    },
    {
      "id": "517bf9a3-0969-4213-a88e-d166534ff673",
      "name": "永吉麥當勞後方車位(俥亭合作)",
      "lat": 25.041595,
      "lon": 121.571241,
      "city": "台北市",
      "district": "信義區",
      "address": "永吉麥當勞後方車位(俥亭合作)台北市忠孝東路五段275巷15號",
      "space_number": 1,
      "day_rate": 44.285714285714285,
      "night_rate": 0,
      "monthly_rate": 0,
      "source": "uspace",
      "building_type": "lock",
      "financial_class": "uspace_owned"
    },