"id","group_key_id","name","space_number","in_operation","building_type","thirdparty_name","lat","lon","city","zone","concat(b.city,b.zone,b.road)"
"0015ccb1-cb69-43c0-9acc-bf67a95c7386","E0064","USPACE富邦金融中心",91,1,"luckypa","parkinsys",25.03839,121.55182,"台北市","大安區","台北市大安區仁愛路四段169號"
"00dcd775-49b5-4996-9022-440c69f5302e","D0416","洛碁大飯店南港館",44,1,"luckypa","parkinsys",25.0523268,121.6115069,"台北市","南港區","台北市南港區忠孝東路七段528號"
"00ddb63e-85eb-4a05-8824-cc4e7894249a","B0161","南京吉林路鄰近車位",2,1,"supernode",NULL,25.051078,121.529661,"台北市","中山區","台北市中山區吉林路22巷3號"
"01354e84-aa92-4926-aa94-dd54f95dfaed","B0238","長榮醫院鄰近車位",1,1,"lock",NULL,24.965752,121.257326,"桃園市","中壢區","桃園市中壢區陸光六街8號"
"014e457e-be46-4daf-a445-36b3929cac3f","A0001","成功國宅車位(和平東路三段)",10,1,"supernode",NULL,25.0276671,121.5468152,"台北市","大安區","台北市大安區和平東路三段1巷72弄60號"
"015466fe-da7e-49c5-9351-5c2b8e049c2c","D0496","三重大智街精華車位",4,1,"subway",NULL,25.07027,121.491244,"新北市","三重區","新北市三重區大智街123號"
"018a731a-efd1-4a37-ab4f-0f58486c7e0c","D0375","市民大道四段精華車位",10,1,"supernode",NULL,25.0445541,121.5532142,"台北市","松山區","台北市松山區市民大道四段215號"
"01b8a868-f220-42e0-a39e-d420dd76ba3f","C0202","瑞光街車位",0,0,"lock",NULL,24.121678,120.682971,"台中市","南區","台中市南區瑞光街10號旁"
"01f48c6a-a043-42e3-8e9a-af14a9ba9a58","E0135","南京復興鄰近車位2.0",3,1,"lock",NULL,25.052428,121.545885,"台北市","松山區","台北市松山區南京東路三段303巷3弄6號"
"0223b7fe-84c9-4fb3-aa27-6465be5d53b8","F0066","崇明五街",0,1,"lock",NULL,22.9799078,120.2167691,"台南市","東區","台南市東區崇明五街43號"
"027b0afa-c416-4d05-b05f-7d8c34567558","E0287","麗車坊中央路站",2,1,"supernode",NULL,23.996989,121.595521,"花蓮縣","花蓮市","花蓮縣花蓮市中央路四段54號"
"028a928c-9959-49af-841e-c7fb32cddff4","C0152","紘緯南屯德順車位(柵欄外)",2,1,"lock",NULL,24.1348333,120.6554832,"台中市","南屯區","台中市南屯區南屯路二段1-1號旁"
"02baefbd-1be4-4912-a96d-d246d427a34f","D0231","捷運松江南京站鄰近車位",1,1,"lock",NULL,25.0533027,121.5322652,"台北市","中山區","台北市中山區松江路140巷3號"
"031086ea-17c9-4830-aad9-cfbba2b48fb9","E0238","芝玉路車位",4,1,"lock",NULL,25.110059354581,121.53433570696,"台北市","士林區","台北市士林區芝玉路二段83號"
"032baa73-13de-4c5e-96b4-baa586d0c552","C0004","行政院鄰近車位",1,1,"lock",NULL,25.046728,121.519898,"台北市","中山區","台北市中山區中山北路一段26巷"
"03fb0284-41bc-409e-8a68-f3410c97ebe3","F0004","松山工農精華車位",5,1,"supernode",NULL,25.03983,121.571272,"台北市","信義區","台北市信義區忠孝東路五段236巷20弄10號"
"043fd9d9-1d1a-4f1d-8fce-e54bd9bce343","C0299","士東市場鄰近車位",1,0,"lock",NULL,25.11164,121.528607,"台北市","士林區","台北市士林區士東路54巷7號"
"04615a8f-9cf3-44d8-b97c-a00682af94e7","B0053","西湖站鄰近車位(基湖路)",2,1,"lock",NULL,25.0804258,121.567807,"台北市","內湖區","台北市內湖區基湖路3巷587號"
"0485d74c-b9a0-49d9-a215-24cd4650ad33","D0167","IKEA台北城市店鄰近車位",1,1,"lock",NULL,25.055152023506,121.55002702457,"台北市","松山區","台北市松山區敦化北路165巷1號"
"04900420-4fe2-4850-a2f5-5736a4cd2998","F0119","永吉豐 和苑三井花園飯店（台北忠孝）",82,1,"luckypa","microprogram",25.0420192,121.5343508,"台北市","大安區","台北市大安區忠孝東路三段30號"
"04adf1c9-1563-4cfe-8ef4-8a036d9906e5","C0332","28飛行隊門口車位",2,1,"lock",NULL,25.0508052,121.5418689,"台北市","中山區","台北市中山區遼寧街68號"
"05712ab8-3cd7-4d25-9195-b9c202118b2f","E0155","廣州街觀光夜市站",1,1,"subway",NULL,25.037416,121.496692,"台北市","萬華區","台北市萬華區廣州街253巷27號對面"
"057a098b-79cc-43cc-95bd-06fafebc416c","C0030","道周醫院(正門)",13,1,"supernode",NULL,24.110697,120.492135,"彰化縣","和美鎮","彰化縣和美鎮道周路641號旁"
"05c611dc-421b-4594-b21b-c2016fdd94cc","E0154","嶺東路停車場",3,0,"all",NULL,24.14476913862,120.6107480328,"台中市","南屯區","台中市南屯區文山二街158-168號"
"05e239ac-899a-43fa-8000-918af2a9e95d","D0369","奧美伽健身會館-台中福科店",7,1,"lock",NULL,24.1849412,120.6169042,"台中市","西屯區","台中市西屯區福康路89號"
"06d6ff57-3bf4-4aa7-ac48-b47975122d4d","A0069","南港展覽館鄰近車位",2,1,"supernode",NULL,25.055002,121.615323,"台北市","南港區","台北市南港區中南街5號"
"06f8b3b9-0073-4142-abfb-cbf7e1ee7e84","F0256","Four Seasons台大",0,1,"aiguard",NULL,25.0171069,121.5304709,"台北市","中正區","台北市中正區羅斯福路三段244巷9弄1-1號"
"072b4f45-7979-4bfa-a945-a839449070bc","A0071","板橋第一運動場鄰近車位",1,1,"lock",NULL,25.0081901,121.4682823,"新北市","板橋區","新北市板橋區民族路129巷12弄"
"0818c334-8e28-4c38-adbd-bd8c49d1dcc3","D0025","樹林廠房田尾街車位",0,1,"supernode",NULL,24.948595056106,121.40046603193,"新北市","樹林區","新北市樹林區田尾街191-2號"
"083e7900-d0c0-4027-a631-9241116e3fe1","F0188","中力健身中科店停車位",12,0,"supernode",NULL,24.1865943,120.61246,"台中市","西屯區","台中市西屯區福科路635號"
"092e883a-6840-4513-bb77-144b154496ac","E0157","富紳師大分部第一停車場",22,1,"subway",NULL,25.008224,121.537443,"台北市","文山區","台北市文山區汀州路四段73號旁空地"
"093c0d98-1cc4-43e4-99e6-351582e6a371","B0304","統一時代對面(路易莎旁)",16,1,"subway",NULL,25.041366483135572,121.56597577441161,"台北市","信義區","台北市信義區忠孝東路五段31巷"
"096ad62b-b618-40c1-92e3-f473ae95c60d","E0107","北投大興光明車位",1,1,"lock",NULL,25.130631,121.500189,"台北市","北投區","台北市北投區大興街55號"
"0977b445-ba17-4727-b2e5-fef58502ec89","E0260","台中市東區練武路293巷車位",1,1,"subway",NULL,24.143276,120.691815,"台中市","東區","台中市東區練武路293巷"
"099169a5-87cb-4a67-ab87-7dc07a9eb6bf","D0032","桃園忠勇二街場(⚡附設充電樁)",4,1,"subway",NULL,24.966215,121.304116,"桃園市","八德區","桃園市八德區忠勇二街103號旁"
"09ed0406-a01e-4938-827f-f85685323039","F0294","佑全藥局大勇店(忠勇路)",4,1,"lock",NULL,24.143632,120.614111,"台中市","西屯區","台中市西屯區忠勇路51號"
"0a3f2987-9a73-4e40-a7b4-dc102a89fd0e","B0261","善導寺鄰近車位",1,1,"lock",NULL,25.045176,121.525701,"台北市","中正區","台北市中正區紹興北街31巷3號"
"0a736733-6948-444c-ad5f-b8c593fa1474","D0548","永春大樓後方車位",2,1,"lock",NULL,25.042316,121.579585,"台北市","信義區","台北市信義區忠孝東路五段703巷1弄7號"
"0a9c23fd-a595-4d36-a100-1d036bc6d344","F0246","旱溪振興路停車場",8,1,"lock",NULL,24.133286,120.697646,"台中市","東區","台中市東區振興路與育英路口旁空地"
"0af1202e-ad38-4ede-b48a-0c35edd3c241","D0093","保平路精華車位",3,1,"lock",NULL,25.004484,121.508494,"新北市","永和區","新北市永和區保平路225巷1號"
"0b03a31a-8fb3-4474-bf7b-7e779b88e882","A0072","敦南誠品後巷車位(寬心園旁)",2,1,"lock",NULL,25.03901,121.551045,"台北市","大安區","台北市大安區仁愛路四段345巷4弄45號"
"0b14c3c8-92ec-403a-8196-fad1277c1030","F0072","林口忠孝路車位",3,1,"lock",NULL,25.0699082,121.370741,"新北市","林口區","新北市林口區忠孝路506號"
"0b1ef29c-af65-4022-8b4c-2a0c592b9e98","F0102","南山新市園區",435,1,"luckypa","microprogram",23.0787457,120.2978029,"台南市","新市區","台南市新市區國際路13號"
"0b2d0e1d-912c-4d7c-b766-53c6e8f7c064","F0339","USPACE中茂新天地",299,1,"luckypa","microprogram",25.0144458,121.3000471,"桃園市","桃園區","桃園市桃園區同德五街77號"
"0b922d82-2bef-45fb-9852-b80d887b8416","F0340","道周醫院(和善路89號)",4,1,"supernode",NULL,24.1099733,120.4916879,"彰化縣","和美鎮","彰化縣和美鎮和善路89號"
"0bba57e8-2133-47de-8c59-2a0dacd91af5","E0066","歌林大廈Sogo精華車位2.0",10,1,"supernode",NULL,25.04309530288638,121.54542450522207,"台北市","大安區","台北市大安區大安路一段52巷16號"
"0bbb3f31-4a1a-4a05-820a-565738e69685","E0264","吉祥公園鄰近車位",0,1,"lock",NULL,25.05013308719736,121.56300812058196,"臺北市","松山區","臺北市松山區八德路四段245巷32弄42-5號"
"0c2d2e4e-6149-4860-b0e7-a954d711b622","E0122","寶林寺正門停車場",9,0,"lock",NULL,24.104538,120.633754,"台中市","烏日區","台中市烏日區信義街381巷27弄10號"
"0c6ac502-5096-41cf-a8b4-ba74509c7cb6","C0232","大曜智泊大里街車位",10,1,"subway",NULL,24.095849,120.677853,"台中市","大里區","台中市大里區大里街15號對面"
"0cd7c5ea-a407-419e-9db6-034d194b397e","E0288","桃園南平永安車位",6,1,"lock",NULL,25.0159625,121.2928483,"桃園市","寶安里","桃園市寶安里南平路556號"
"0ce2d219-6037-4c03-a1df-2d038a5e59c6","D0068","秀朗路三段車位",1,1,"lock",NULL,24.9934078,121.5254282,"新北市","中和區","新北市中和區秀朗路三段78巷1弄28號"
"0d047894-8fe9-41f8-8f89-cf0fb9c1f4be","C0058","內湖TI大樓",1,1,"lock",NULL,25.079217,121.593458,"台北市","內湖區","台北市內湖區星雲街106號"
"0d07f61a-969f-4a57-8afb-e70e3acdfe31","B0249","一元堂鄰近車位",1,1,"lock",NULL,25.049557,121.566047,"台北市","松山區","台北市松山區八德路四段295巷18弄6號"
"0d1c986f-fc39-4ec5-aadc-ac6084443753","F0098","貓牛瑜伽車位(榮星羊雞城旁)",2,1,"lock",NULL,25.0644903,121.5414679,"台北市","中山區","台北市中山區五常街97號"
"0d1ef2b7-9fa2-4649-afd0-df1217e5ba13","A0255","板橋車站鄰近車位",12,1,"subway",NULL,25.016333,121.46172,"新北市","板橋區","新北市板橋區光正街45巷25號"
"0d8513de-dbf3-4e3a-a1a5-1576dd9296df","D0331","新北大道鄰近車位",1,0,"lock",NULL,25.0619158,121.4877847,"新北市","三重區","新北市三重區新北大道一段46巷8號"
"0dce5b9b-0052-4a7c-86c0-679721fda0f8","F0144","萬華德昌街精華車位",1,1,"lock",NULL,25.0246589,121.496471,"台北市","萬華區","台北市萬華區德昌街132巷6號"
"0dddc187-43c5-4ba7-a3a7-ec9b43e7cfb9","F0103","南山新市園區C棟",101,1,"luckypa","microprogram",23.0793595,120.2975293,"台南市","新市區","台南市新市區國際路15號"
"0e015982-acd9-400b-ae16-577acb748369","F0022","合作金庫林口分行前方車位",9,1,"lock",NULL,25.0569818,121.3672966,"桃園市","龜山區","桃園市龜山區文昌一街2號"
"0e3998d9-4aa4-4051-b527-9713c0a5de5e","F0017","歌林大廈Sogo地下車位",4,1,"aiguard",NULL,25.043022356686,121.54534090622,"台北市","大安區","台北市大安區大安路一段52巷16號"
"0e454d5f-afc7-4526-bed4-ebe8ed1ffd36","B0280","鎮三街鄰近車位",5,1,"lock",NULL,24.999975,121.315933,"桃園市","桃園區","桃園市桃園區中央街149號"
"0ef81889-d77e-42b4-ade8-b276eb5ec0df","G0131","新店中正路車位",3,1,"lock",NULL,24.975105,121.536027,"新北市","新店區","新北市新店區中正路329巷1號"
"0f22249d-14c3-4893-8e05-be40af98da9f","F0089","浦城街精華車位",1,1,"lock",NULL,25.0228249,121.526515,"台北市","大安區","台北市大安區浦城街26巷4號"
"0f8b62b4-1240-47dc-8a31-56f4631f540e","D0466","天母棒球場德行東路車位",2,1,"lock",NULL,25.11226195637437,121.53587101331019,"台北市","士林區","台北市士林區德行東路283巷18號"
"0fc20da1-00f2-4336-bc85-fe509d999958","D0087","建國市民好好停",0,0,"lock",NULL,25.0449994,121.5381951,"台北市","中山區","台北市中山區八德路二段174巷32號"
"0ff137d2-98f0-4243-9572-b406c83d00ce","D0028","西苑二街鄰近車位(柵欄外)(月租)",0,1,"lock",NULL,24.184428,120.637552,"台中市","西屯區","台中市西屯區西苑二街178號"
"1030896f-6615-4e9a-a134-75cd894c5e62","A0077","中興橋下車位(柵欄外)",4,0,"lock",NULL,25.051187,121.48891,"新北市","三重區","新北市三重區成功路63號"
"10487f0b-5901-4c6e-9014-e555ac8268de","E0137","潮州街月租車位",0,1,"lock",NULL,25.028790048726936,121.52448929264364,"台北市","大安區","台北市大安區潮州街82巷"
"105e1ca7-9a3b-479e-bd2e-ca6119fcc0be","G0070","龜吼萬里聽濤驛站",166,1,"recognition",NULL,25.189308208075282,121.68331520931696,"新北市","萬里區","新北市萬里區玉田路45-6號旁"
"1074d52e-da21-4fc0-a3fb-275dfbd901b3","C0015","仁愛金山南路車位",0,1,"lock",NULL,25.037868,121.527386,"台北市","中正區","台北市中正區仁愛路二段38巷2號"
"1080363b-320d-4e5e-b8ff-8ae6c471cbcd","D0177","行天宮鄰近車位",2,0,"aiguard",NULL,25.0635016,121.5346932,"台北市","中山區","台北市中山區松江路357巷9號"
"10b7dd3c-2e83-43e9-918d-cb0f2ef6252a","F0140","內湖民權東路六段280巷月租車位",9,1,"lock",NULL,25.070523,121.607664,"台北市","內湖區","台北市內湖區民權東路六段280巷50號對面"
"1132b396-8a5d-4a0a-bd6d-e6b2ca60724b","F0001","春社東巷車位",0,0,"lock",NULL,24.136184,120.61251,"台中市","南屯區","台中市南屯區春社里忠勇路18-14號"
"115eb82e-ae5e-424b-b157-5b2f3dbdf74f","A0006","忠孝敦化地下車位(上通)",3,1,"supernode",NULL,25.0412289,121.5497052,"台北市","大安區","台北市大安區忠孝東路四段146巷1號B1"
"11666a91-4b7d-4b09-9467-a49f5002d2be","C0187","凱恩斯牛排(公益店)",10,1,"supernode",NULL,24.151302922872,120.63442549301,"台中市","南屯區","台中市南屯區公益路二段536號"
"11a28e18-f2fa-4883-9b67-989a47e05d32","E0101","梧棲大仁停車場",90,1,"subway",NULL,24.263935,120.534,"台中市","梧棲區","台中市梧棲區大仁路二段378號旁(隔壁空地，中港世貿正對面)"
"11dde1c9-3c9b-4d12-9040-1651490f22a3","E0152","逢明街29巷車位",0,1,"lock",NULL,24.1756433,120.6392125,"台中市","西屯區","台中市西屯區逢明街29巷70號旁空地"
"12488d62-b5be-4c2c-bbaf-88a37a6db655","B0122","積穗國中鄰近車位",1,1,"lock",NULL,25.0015838,121.4784975,"新北市","中和區","新北市中和區民安街42巷40號"
"1267fb48-3d8e-4614-a6e7-acb7cd0d8aa5","C0258","康茵行旅民權街車位",4,1,"supernode",NULL,24.112719253474,120.62730663941,"台中市","烏日區","台中市烏日區大同九街73號"
"13061b53-1954-4171-bf54-cbef21ba39bb","A0078","Howard's Bike車位",2,1,"lock",NULL,25.046911,121.555706,"台北市","松山區","台北市松山區光復南路22巷27號"
"1310faa3-aeb2-460c-84a4-bf42c245a049","D0374","平安公園鄰近車位",1,1,"lock",NULL,25.031936493564,121.55053364931,"台北市","大安區","台北市大安區安和路二段32巷27號"
"131af126-3558-46ef-8dc5-39bf72316753","C0080","USPACE中油福林站二場",6,1,"supernode",NULL,25.093375,121.527738,"台北市","士林區","台北市士林區中山北路五段"
"1421323f-4214-4271-b805-4c4d85360fe6","C0371","65高地停車場",33,1,"luckypa","microprogram",25.144942,121.798418,"基隆市","中正區","基隆市中正區長潭段168-9、192-4地號"
"1440bbbd-d57b-46ac-a07a-5d08bf1c044e","B0130","松江民生車位",4,1,"lock",NULL,25.058552,121.531872,"台北市","中山區","台北市中山區松江路226巷16-1號"
"14856f50-3bca-4bc2-9877-fed6fa1ff8c3","A0080","台視臨近車位(寧安街)",1,1,"lock",NULL,25.0486866,121.5538156,"台北市","松山區","台北市松山區寧安街4巷"
"151d6e0e-68df-4b3b-8f86-e33535e7635c","E0170","美學NEC共享車位",1,0,"lock",NULL,24.134276,120.666731,"台中市","西區","台中市西區五權路2-192巷2號"
"153231df-4b14-4a41-9b8c-7025a41835d7","C0081","松山工農有棚車位",1,0,"aiguard",NULL,25.040067,121.570721,"台北市","信義區","台北市信義區忠孝東路五段236巷10弄"
"15d2c18e-7213-4d31-8ec9-c6f580448b6d","B0082","合江街69巷車位(越南河粉巷弄)",3,1,"lock",NULL,25.058185,121.53985,"台北市","中山區","台北市中山區合江街69巷"
"15d2eb19-fc59-4d6a-a204-19d253a85d8f","G0026","遼寧二街鄰近車位",7,1,"lock",NULL,22.644359,120.294369,"高雄市","三民區","高雄市三民區高雄市三民區熱河二街249號（後方巷子空地）"
"160669a6-d356-4c00-9dd6-36ba64e2b853","B0225","莊敬高職鄰近車位",1,1,"lock",NULL,25.014851,121.520213,"新北市","永和區","新北市永和區竹林路39巷32弄43號"
"17dc5e35-0b55-435d-9037-e1d1ecf1fab0","F0143","洛陽路111巷",0,1,"subway",NULL,24.168048,120.650719,"台中市","西屯區","台中市西屯區洛陽路111巷32號旁"
"1822dee6-970c-402a-98de-2c5d7eb520d1","D0069","民生東辦公室",1,0,"all",NULL,25.0581275,121.5374549,"台北市","中山區","台北市中山區民生東路三段3號"
"190408d0-14ed-48e0-9135-2f9531d2aa85","D0054","豐原源豐路車位",4,1,"lock",NULL,24.252837223041,120.71619039791,"台中市","豐原區","台中市豐原區源豐路60號"
"19177c77-abe9-46cf-ba52-db3d2cd1e183","G0142","特爾電力-南投華陽超充站",3,0,"lock",NULL,23.9169153,120.684601,"南投縣","南投市","南投縣南投市華陽路199號號"
"1941d426-653d-4411-b2e1-2787d7bcfa78","D0426","振宇五金中崙三停車場",34,0,"luckypa","microprogram",25.046510029864,121.53986637635,"台北市","中山區","台北市中山區八德路二段218巷"
"1979f44a-cd16-4ee6-90ce-af823d48a30e","A0085","永康街7巷車位",4,1,"supernode",NULL,25.0330389,121.53066,"台北市","大安區","台北市大安區永康街7巷6號"
"19e47fd4-7393-4854-818a-07a1a9527e0d","E0311","板橋海山郵局後巷車位",0,1,"subway",NULL,25.01264200998,121.46972930581,"新北市","板橋區","新北市板橋區漢生東路161巷5號旁"
"1a9ec5be-d0df-4e8c-8b8b-bb8ec6805904","C0209","信義GD車位",11,1,"supernode",NULL,25.033624969090823,121.55832395408451,"台北市","信義區","台北市信義區光復南路473巷"
"1aa8c664-06c6-4367-a748-b2f166eb3386","C0043","中崙新村車位",7,1,"lock",NULL,25.0456571,121.5572459,"台北市","松山區","台北市松山區光復南路58巷3號"
"1b376d3a-7412-4db5-87c1-c355c6519b4b","E0295","中吉公園鄰近車位",1,1,"lock",NULL,25.056827,121.531609,"台北市","中山區","台北市中山區松江路188巷17號"
"1b7d4c20-7a0b-4090-9bad-31f572f30df2","F0082","南京光復鄰近車位",2,1,"lock",NULL,25.050957210972516,121.55919152084402,"台北市","松山區","台北市松山區南京東路五段34之1號"
"1c4377b2-2fdc-419d-abfd-808aa2c14ca0","D0502","集賢路269巷車位",0,0,"aiguard",NULL,25.0835108,121.4819696,"新北市","蘆洲區","新北市蘆洲區集賢路269巷15號"
"1c7aeb22-5c83-4f88-bfcf-c065242ca6a4","G0148","全國加油站-三多站",4,0,"lock",NULL,22.619744,120.322757,"高雄市","苓雅區","高雄市苓雅區三多二路"
"1cb3d8b8-7836-4f0e-adb6-30de8d35ab52","D0480","伯爵山莊車位(圓環右側)",0,1,"lock",NULL,25.076141,121.642911,"新北市","汐止區","新北市汐止區翠峰街23號"
"1d840945-fbee-4016-b83b-0ddfce414099","E0321","北車YMCA前方車位",3,1,"lock",NULL,25.0456755,121.5165906,"台北市","中正區","台北市中正區許昌街19號"
"1dfde816-e975-4835-9662-b8e874140ca9","F0011","全球科技廣場月租車位",0,1,"lock",NULL,25.064285587714,121.58325068043,"台北市","內湖區","台北市內湖區新湖二路329號"
"1e44bcad-7efc-4b41-a6ec-f8e616a3a5ff","E0213","富紳師大分部第二停車場",0,0,"lock",NULL,25.007982,121.538044,"台北市","文山區","台北市文山區汀州路四段77號"
"1ea7b3b7-4e2a-4f3a-933c-68a8e01aada4","E0075","長庚醫院後方車位",2,1,"lock",NULL,25.055248913751935,121.55015668585507,"台北市","松山區","台北市松山區敦化北路199巷2弄13號"
"1ef142e5-8786-439b-9f45-0c2d5961f5b0","G0143","特爾電力-高雄美術東旗艦站",1,0,"all",NULL,22.6509108,120.2898263,"高雄市","鼓山區","高雄市鼓山區美術東四路18號"
"1efe41b7-d082-474a-a056-abc94f02e991","G0001","NAGONAGO寵物友善餐廳",5,1,"lock",NULL,24.195078,120.661367,"台中市","北屯區","台中市北屯區同榮路93號"
"1f2dfcee-7447-4b42-af0f-dce32b3ae0de","A0014","聯合報車位",4,1,"lock",NULL,25.042121,121.563655,"台北市","信義區","台北市信義區忠孝東路四段559巷1號"
"1fb6a440-78c7-460c-80cd-46e93dac7207","F0091","西門成都路鄰近車位",1,1,"lock",NULL,25.0441443,121.5021427,"台北市","萬華區","台北市萬華區康定路30巷169號"
"1fc64e94-faca-47a5-bc7b-473338b4c940","D0475","伊通公園鄰近地下車位",0,0,"aiguard",NULL,25.048842687818,121.5343202,"台北市","中山區","台北市中山區松江路63巷10號"
"200c030c-78f0-4f01-a06e-c767935da563","B0125","建國錦州街車位",2,1,"lock",NULL,25.0612309,121.5379162,"台北市","中山區","台北市中山區錦州街305巷"
"2046e51f-bff3-4a20-a566-2c38d94ba58b","D0464","天母棒球場鄰近車位",1,1,"lock",NULL,25.113007984331244,121.53590856668346,"台北市","士林區","台北市士林區士東路254號"
"20605460-153c-4539-b31b-d8847c07cc47","C0141","USPACE中油福林站一場（太古福斯汽車）",0,1,"aiguard",NULL,25,121,"台北市","士林區","台北市士林區中山北路五段"
"20cfd875-453b-4e1c-990a-c17e92c06dbf","F0002","永和耕莘醫院停車場(戶外地鎖車位)",3,1,"supernode",NULL,25.010985291365,121.51699573434,"新北市","永和區","新北市永和區國光路123號"
"20ebb488-e7d2-49c9-9b02-cf147b5036eb","D0076","撤）光復大樓精華車位改 大巨蛋鄰近車位",5,0,"lock",NULL,25.0464774,121.55814,"台北市","松山區","台北市松山區光復南路35號"
"213040ab-4765-4a43-a2e8-14ef9e5dc456","D0239","五條通林森北路85巷車位",2,0,"supernode",NULL,25.049534,121.526031,"台北市","中山區","台北市中山區林森北路85巷36號"
"21735770-8a78-45f5-9720-d39607f4d356","G0009","國聖街鄰近車位",14,1,"supernode",NULL,23.039634,120.231917,"台南市","永康區","台南市永康區國聖街"
"2188a31d-b946-4abf-956f-645e70f02c14","F0341","仁愛圓環鄰近車位",5,1,"lock",NULL,25.039050194532248,121.5470772362016,"台北市","大安區","台北市大安區敦化南路一段270巷21號"
"2191d260-d5f8-4da3-b4f1-7a228abcacd2","D0165","研究院路停車場",39,1,"luckypa","cityparking",25.051542220207,121.61645971859,"台北市","南港區","台北市南港區研究院路一段101巷16弄8號"
"22133038-96e1-4202-a403-387d9443e93a","G0032","新竹勝利九街柴比餐飲",5,1,"lock",NULL,24.825217,121.0294377,"新竹縣","竹北市","新竹縣竹北市勝利九街72號"
"2218fe12-3fd5-43e1-a245-d21d0b9cb114","E0132","蘆洲享宴精華車位",6,1,"supernode",NULL,25.081635124396,121.48137140441,"新北市","蘆洲區","新北市蘆洲區重陽一街26號"
"22604c57-b2f9-4eae-94fd-cdc81531de67","F0062","大安高工鄰近車位（朝代金站大樓後方）",1,1,"lock",NULL,25.032033958857,121.54399949427,"台北市","大安區","台北市大安區復興南路二段25-27號"
"22f7b590-a88f-47c6-bf1e-659a4ef0be80","A0091","捷運七張站車位(寶強路)",3,1,"supernode",NULL,24.978175,121.543519,"新北市","新店區","新北市新店區寶強路2號"
"23b22d25-4b67-4b4f-9be7-858203de1e32","C0333","晴光市場旁車位(柵欄外)",2,1,"supernode",NULL,25.0654913,121.5239159,"台北市","中山區","台北市中山區雙城街18巷3號"
"23bc6145-02be-436d-b4e1-97a9817e4a6f","F0251","啄木鳥林口店",8,1,"lock",NULL,25.0754829,121.384068,"新北市","林口區","新北市林口區仁愛路二段80號"
"240a992d-c0dd-4a80-a088-2113663ddc3a","D0067","敦化和平精華車位",4,1,"lock",NULL,25.0250994,121.5477948,"台北市","大安區","台北市大安區四維路244號"
"245708d8-f419-4384-a778-6d13c36c0ba3","B0305","遠企旁精華車位",2,1,"lock",NULL,25.026991,121.5497,"台北市","大安區","台北市大安區安和路二段185號對面"
"251492e5-94c8-4a11-ab8d-807dc556e873","E0065","何厝街車位",1,1,"lock",NULL,24.1623047,120.6550839,"台中市","西屯區","台中市西屯區何厝街68號"
"256167c6-3e9a-40ee-a78a-51f734dcf8e0","D0272","永和耕莘醫院鄰近車位",1,1,"lock",NULL,25.009065,121.517781,"新北市","永和區","新北市永和區中正路666巷25號"
"25a2ec27-1881-402d-aebd-d54ddaa95914","F0124","成功三街鄰近車位",5,1,"lock",NULL,22.958562,120.231228,"台南市","仁德區","台南市仁德區成功三街"
"26b26644-7179-45e9-81dc-4aab886dadb4","D0549","立嘉成",0,1,"lock",NULL,24.2479333,120.6911454,"台中市","神岡區","台中市神岡區中山路303號"
"26f9bf67-ff1b-4bac-b7ff-3d4b7ee17dda","D0420","中山北路七段219巷車位",0,0,"lock",NULL,25.1271556,121.5322755,"台北市","士林區","台北市士林區中山北路七段219巷"
"2706143e-73ef-4c40-a16a-263f4d7e109e","F0337","淡水梨花大苑旁車位",4,1,"lock",NULL,25.1704526,121.4490773,"新北市","淡水區","新北市淡水區學府路68號"
"27847754-852a-4371-81d6-f20ea4bacdfd","B0232","農安街精華車位",3,1,"supernode",NULL,25.064959,121.535957,"台北市","中山區","台北市中山區農安街271巷5號"
"278e6342-12e5-4861-9f5a-372444109e4e","G0074","光復南路260巷7號旁車位",1,1,"lock",NULL,25.039863,121.556713,"台北市","大安區","台北市大安區光復南路260巷7號"
"27d0ae4d-2bc9-499c-b29a-ba4a9a2d5fd1","B0036","新莊思源路370巷車位",12,1,"subway",NULL,25.051744070649,121.46124951307,"新北市","新莊區","新北市新莊區思源路370巷"
"2839a636-4e80-4cce-90e0-7e91a1a81725","D0479","伯爵山莊車位(社區後巷)",0,1,"lock",NULL,25.076467,121.642913,"新北市","汐止區","新北市汐止區翠峰街23號"
"283ab10a-ba41-4085-b97a-8851dc4bcbaf","F0019","中正紀念堂鄰近車位",1,1,"lock",NULL,25.034342872924,121.52379370274,"台北市","大安區","台北市大安區杭州南路二段11號"
"289836bd-8ed9-4383-ae78-a6fc4543e46e","A0252","時代通商大樓",2,1,"supernode",NULL,25.040814,121.554926,"台北市","大安區","台北市大安區光復南路240巷55號"
"2898a22a-4a5f-4163-96b5-35c8c8dbd3b6","B0246","國父紀念館車位(光復南路421巷)",1,1,"lock",NULL,25.036238,121.558454,"台北市","信義區","台北市信義區光復南路421巷19號"
"28a7a0aa-b864-41c9-a9b0-3b195721079d","F0264","小捲尾寵物精品美容前方車位",2,1,"lock",NULL,25.039155408048998,121.55113755977888,"台北市","大安區","台北市大安區仁愛路四段345巷4弄45號"
"292d5bff-db97-4db0-8134-d7bdbb593fe1","C0049","衣櫥餐酒前方車位",3,1,"lock",NULL,25.042529,121.54815,"台北市","大安區","台北市大安區忠孝東路四段101巷16號"
"292d9f91-64bb-441d-b947-61e130c8fbce","D0238","九份國小車位",2,1,"supernode",NULL,25.107385,121.844025,"新北市","瑞芳區","新北市瑞芳區崙頂路110號"
"2937381e-63e7-405f-9413-fae6d0b34d7e","C0117","台中朝聖行旅(一中商旅)",14,0,"lock",NULL,24.159006,120.691681,"台中市","北區","台中市北區雙十路100巷"
"293bf30c-fa53-4344-810a-89924d608892","F0065","三峽老街中山路車位",2,1,"lock",NULL,24.9344726,121.3677653,"新北市","三峽區","新北市三峽區中山路51-1號"
"297659ab-491b-49b7-88f4-0dbfdff07b83","G0139","特爾電力-新竹竹北旗艦站",2,0,"lock",NULL,24.8247389,121.0283158,"新竹縣","竹北市","新竹縣竹北市勝利七街一段296號"
"2af82b32-7a05-4f8e-8775-425ab4aa8090","A0099","敦化北路車位(法蘭司麵包店旁)",1,1,"lock",NULL,25.054165,121.549967,"台北市","松山區","台北市松山區敦化北路155巷5號"
"2b09b5d6-0202-487c-aa8b-4d39c4df3a66","F0296","宏達僑中三場",4,1,"subway",NULL,25.0066561,121.4416041,"新北市","板橋區","新北市板橋區環河西路五段28號"
"2b5058e6-f962-46db-9a1c-77fd9f90355c","F0084","復興市民精華車位",1,1,"lock",NULL,25.0442868,121.5434292,"台北市","大安區","台北市大安區安東街35巷33號"
"2c905fbc-d2f4-45f2-9ff3-b663115f92f4","B0210","南京復興鄰近車位",6,1,"lock",NULL,25.052356,121.545638,"台北市","松山區","台北市松山區南京東路三段303巷3弄"
"2ca156d7-b24b-40df-b3e6-0eb95c347a08","F0247","USPACE正大樂富停車場",41,1,"recognition",NULL,25.10441,121.514339,"台北市","北投區","台北市北投區文承路28號"
"2caad3d7-809a-46a3-9ba3-78f78f3d691b","C0313","三德大飯店(後側)",5,1,"supernode",NULL,25.0646528,121.5189264,"台北市","大同區","台北市大同區承德路三段51巷"
"2d3305bc-3674-4419-95ee-afb7ff1030b6","F0090","復興路二段99巷停車場",4,1,"subway",NULL,24.12405,120.66284,"台中市","南區","台中市南區復興路二段99巷6號"
"2d5383a5-645c-4dde-8189-7ab3bf7bab95","F0238","日月町第二停車場",129,0,"luckypa","microprogram",23.975173,120.923564,"南投縣","埔里鎮","南投縣埔里鎮中山路四段283號"
"2d56c5a5-dadb-4bc4-a003-bcb7c03a44fb","F0272","USPACE湯城園區停車場(汽車)",150,1,"luckypa","microprogram",25.045496,121.469187,"新北市","三重區","新北市三重區重新路5段609巷"
"2d94aab6-8b03-40b7-8b95-707843b8d9dc","D0300","社子市場鄰近車位",1,1,"lock",NULL,25.0893875,121.50958,"台北市","士林區","台北市士林區社正路45巷1號"
"2e3b3a46-19db-44e3-bff3-3eb334ad0413","C0376","宏泰交易一號廣場",75,1,"luckypa","microprogram",25.037311311691,121.5696754355,"台北市","信義區","台北市信義區松仁路89-5號"
"2e5a176c-d614-4dc7-b291-2952860f7ddc","C0179","嵜本吐司旁地下月租車位",0,1,"all",NULL,25.042472,121.565842,"台北市","信義區","台北市信義區基隆路一段147巷轉角"
"2ec33f4b-ef4f-4445-8613-9772cd160285","E0140","幸安市場鄰近車位",0,1,"lock",NULL,25.040059392728097,121.53126548239648,"台北市","中正區","台北市中正區濟南路二段46號"
"2eee51b7-ac00-4b9b-b90d-f1e2cd759cbd","F0162","新店安忠路巷弄月租B場",12,1,"subway",NULL,24.95839032367,121.51259520468,"新北市","新店區","新北市新店區安忠路57巷26弄8號旁"
"2f29006d-ee88-40f8-9cb0-370e00b3e4e0","D0010","新生公園內車位 (新生北路×濱江街入口)",7,1,"supernode",NULL,25.070709140444,121.52843480102,"台北市","中山區","台北市中山區新生北路三段105號"
"2f40c9f2-a527-45d3-a7ec-b258f86fb5ab","E0257","彰化光華街車位",0,1,"lock",NULL,24.070254,120.542772,"彰化縣","彰化市","彰化縣彰化市光華街5號"
"2fcfda94-28f2-44e2-b817-fba09801c73e","C0046","建成大廈平面車位",4,1,"lock",NULL,25.04091,121.550251,"台北市","大安區","台北市大安區忠孝東路四段170巷6弄5號"
"2ffaf534-9adc-43d1-bc09-6f0b73cc9b92","F0116","復興公勇路口鄰近車位",4,1,"lock",NULL,22.667649,120.489107,"屏東縣","屏東市","屏東縣屏東市復興路"
"307c2dae-14fa-4b7c-b914-dc2cc44911e5","F0083","中壢松勇路車位",11,1,"supernode",NULL,24.960836,121.165903,"桃園市","中壢區","桃園市中壢區松勇路172號"
"30b68351-4ed6-4828-b601-d7ff1e0f2490","A0101","小巨蛋鄰近車位",9,0,"lock",NULL,25.05282,121.551271,"台北市","松山區","台北市松山區南京東路四段53巷8弄1號"
"30db94e5-1f8e-4afa-9b96-bbc7840cda46","A0102","湘誠葡萄酒車位",1,1,"supernode",NULL,25.043047427794,121.55250622603,"台北市","大安區","台北市大安區忠孝東路四段223巷49弄6號"
"3174094b-f363-4334-9b13-7f9de66933fd","D0278","USPACE 正大竹圍停車場",12,1,"luckypa",NULL,25.141399,121.4604479,"新北市","淡水區","新北市淡水區民權路27號"
"3184e60b-e814-45f6-aaf8-6ceb950a78d1","D0474","伊通公園鄰近車位",1,1,"lock",NULL,25.0496523,121.5356358,"台北市","中山區","台北市中山區建國北路一段88巷12號"
"31b17dae-749a-4c57-9fdc-e43566dee3f6","E0198","USPACE長春復興站（行人門禁）",1,0,"aiguard",NULL,25.0546379,121.5455089,"台北市","松山區","台北市松山區長春路343號"
"3245bde4-ecf3-48b9-b695-0f607069d62a","F0080","師大禮居月租車位",0,1,"subway",NULL,25.026877606120483,121.52682763529164,"台北市","大安區","台北市大安區和平東路一段"
"32bd5490-1e44-44a1-b32b-0c0271a573ba","F0023","USPACE華亞科學園區停車場",100,1,"luckypa","microprogram",25.050991805716,121.37857604487,"桃園市","龜山區","桃園市龜山區華亞二路9號"
"32d5365f-42a0-4d63-bcfa-5dd3c4c8cf05","F0177","內湖文德路鄰近車位",1,1,"lock",NULL,25.07787920634912,121.5811160893241,"台北市","內湖區","台北市內湖區文德路66巷10弄7號"
"3434c682-312c-4ca0-9f39-ef5f404e466f","E0237","車麗屋朝馬店",7,0,"supernode",NULL,24.168650331044944,120.63664598973176,"台中市","西屯區","台中市西屯區朝馬路67號"
"34e3fbab-dc67-402b-91fb-4e568030e697","D0309","福港街鄰近車位",2,1,"lock",NULL,25.086001686973,121.51685002153,"台北市","士林區","台北市士林區福港街210巷17弄2號"
"350906d3-fe06-4240-8ee4-5b247983eafa","F0109","特斯拉臺北內湖總部",16,0,"subway",NULL,25.066888,121.5750254,"台北市","內湖區","台北市內湖區舊宗路二段1號"
"35097bd7-20e1-4584-a794-baa4909307ad","E0245","惠中路超美停車場",2,1,"lock",NULL,24.155163,120.6409805,"台中市","西屯區","台中市西屯區惠中路二段57號"
"350f88b7-d971-48ee-97e8-7a43e53a513e","F0155","羅馬東區地下停車場",21,1,"luckypa","microprogram",25.04206146600541,121.55048164245555,"台北市","大安區","台北市大安區忠孝東路四段181巷10弄"
"3534eaeb-23f7-4700-9302-0bf0414e9807","D0277","興進路與國豐路口車位",3,1,"lock",NULL,24.1557921,120.6957614,"台中市","北區","台中市北區興進路126號"
"35379d13-dbae-471c-b653-38e2ae4e12fb","E0056","光復北路177巷車位",1,1,"lock",NULL,25.05809574438,121.55627693573,"台北市","松山區","台北市松山區光復北路177巷17號"
"358239d6-9278-41e8-832a-11e93cd99cb0","F0215","應安168信義大安站",16,1,"luckypa","microprogram",25.0335409,121.5461871,"台北市","大安區","台北市大安區信義路四段89之1號"
"35f0ce19-dbe9-48ae-8fb3-a25c8b8897a4","F0105","民生圓環鄰近車位",1,1,"lock",NULL,25.059898645045138,121.56408741445252,"台北市","松山區","台北市松山區民生東路五段175號"
"362c15e2-5f85-4e24-8c45-6e9517f2bed5","E0058","USPACE民權社區停車場",25,1,"supernode",NULL,25.06185,121.547912,"台北市","松山區","台北市松山區民權東路三段160巷2-6號"
"36e185f9-a2d4-4a51-8ba7-34d41528202b","A0019","瑞光場",15,1,"lock",NULL,25.0703776,121.5825805,"台北市","內湖區","台北市內湖區瑞光路38號"
"371454a7-3b92-44ae-8a6c-7de906bee018","D0124","福悠停車場一場",126,1,"luckypa","microprogram",24.17289,120.648549,"台中市","西屯區","台中市西屯區福星路666號對面"
"37471018-6055-4078-8884-0cc357fc39ad","E0059","民權社區B1戶外車位",3,1,"supernode",NULL,25.0613481,121.5475669,"台北市","松山區","台北市松山區民權東路三段106巷3弄22號"
"37771344-5587-4748-91d6-cc4229e4412f","F0221","社子通河西街二段29號旁車位",6,1,"lock",NULL,25.089704236903682,121.5114658211242,"台北市","士林區","台北市士林區通河西街二段29號旁"
"383d2fd1-7fcd-426b-b320-544198c2103d","F0240","巴克禮和睦居",54,1,"recognition",NULL,22.969339,120.220972,"台南市","東區","台南市東區崇賢六路九號"
"387ec265-a772-40b7-8f40-0f5276d8dba8","B0008","忠孝東路251巷車位",1,1,"supernode",NULL,25.0436696,121.5412143,"台北市","大安區","台北市大安區忠孝東路三段251巷12弄7號"
"38e93e4a-464e-4168-a2c9-1c7c0ae4574d","F0335","金馬彰美(吾所飾室)停車格",5,1,"lock",NULL,24.090907,120.53573,"彰化縣","彰化市","彰化縣彰化市金馬路二段708號"
"394ddd6e-96d6-4155-9505-b3ac0d84ec47","G0017","USPACE新莊中央二場",37,1,"luckypa","cityparking",25.0580282,121.4478988,"新北市","新莊區","新北市新莊區中央路437號"
"394eb27c-230e-4793-bac4-449a4e7a13c4","E0141","潮州古亭站",4,1,"lock",NULL,25.028768153177,121.52233631158,"台北市","大安區","台北市大安區潮州街26巷18號"
"398cc916-40a3-4bd8-995e-780d2bfda76a","E0240","頂好名店城二場(大安路一段75巷)",8,1,"supernode",NULL,25.04216,121.547972,"台北市","大安區","台北市大安區大安路一段75巷29號"
"39b7b04f-184c-4033-bc2d-b82b43eff9c0","C0133","優境里寧停車位",9,1,"lock",NULL,24.148347,120.641936,"台中市","南屯區","台中市南屯區大川街122號"
"39c1811a-6f8d-4f07-88ae-d075525b62a6","F0181","富甲天下大樓",11,0,"aiguard",NULL,25.05816,121.585279,"台北市","內湖區","台北市內湖區南京東路六段346號"
"39c7c67b-06f3-4de3-a5da-d946ede3d432","F0115","忠明公益停車場(夏帕旁邊)",6,0,"lock",NULL,24.150015,120.657208,"台中市","西區","台中市西區忠明南路160號"
"39ec3ea2-b409-4fca-8c44-18accca9542c","G0125","沙鹿東晉一街車位",20,1,"subway",NULL,24.219999,120.578096,"台中市","沙鹿區","台中市沙鹿區東晉一街11號"
"39f4d788-bf2a-4549-a314-d827c8ef5858","A0272","徐匯中學臨近車位",2,1,"lock",NULL,25.0805299,121.4740834,"新北市","蘆洲區","新北市蘆洲區中山一路197巷4弄21號"
"3a0d301b-558e-4257-b6c8-593e781da738","C0175","唐采文具民權育德車位",5,1,"lock",NULL,24.157571,120.670372,"台中市","北區","台中市北區民權路399號"
"3a2812a4-a76d-40a5-8928-708e44d79abd","F0232","太平路一段鄰近車位",12,0,"lock",NULL,23.965354,120.682155,"南投縣","草屯鎮","南投縣草屯鎮太平路一段395號旁空地"
"3aa114a5-b76c-4a7a-bafd-fbcca7b2ef3d","D0303","蘆洲環堤大道月租車位",0,1,"subway",NULL,25.08932,121.456055,"新北市","蘆洲區","新北市蘆洲區環堤大道166號"
"3aead747-0374-42cb-8e91-daa037686cf5","F0014","士林夜市鄰近車位",1,1,"lock",NULL,25.0835603,121.5220741,"台北市","士林區","台北市士林區劍潭路48號"
"3c0e0563-b3a3-487e-9423-916bca8bf577","A0313","湖光國宅22巷車位",1,1,"lock",NULL,25.0762634,121.5792825,"台北市","內湖區","台北市內湖區文德路22巷53弄19號"
"3c57768a-96af-4364-bc5a-9cc36cb49854","D0027","西苑二街鄰近車位",18,1,"subway",NULL,24.184356975974,120.63765684082,"台中市","西屯區","台中市西屯區西苑二街178號"
"3c8b24a6-3809-4ae2-9c42-cacf4ca2b38a","A0110","客家廚房車位",2,1,"supernode",NULL,25.053854,121.5474,"台北市","松山區","台北市松山區敦化北路120巷20號"
"3c91101b-5dae-408f-b78c-6c6e4a680132","C0340","西區均安街車位",6,1,"lock",NULL,24.147975,120.67196,"台中市","西區","台中市西區均安街131巷38號"
"3cc6c49e-9ba1-4065-9e8f-a3793dbc9877","G0051","USPACE 蘆洲永安南路月租場",0,0,"luckypa",NULL,25.074995,121.474519,"新北市","蘆洲區","新北市蘆洲區永安南路一段170號"
"3d430984-48e2-4174-9b17-56d3c264a5db","D0117","民生圓環建成花園",1,1,"luckypa",NULL,25.058639130312,121.56481829429,"台北市","松山區","台北市松山區民生東路五段206號"
"3dcceaea-b3da-4e44-bf16-ed60acaa16f2","E0139","臨沂榮譽站",6,1,"lock",NULL,25.035607625866,121.53057695267,"台北市","中正區","台北市中正區臨沂街63巷23號"
"3e2a3a83-6a80-473f-afb7-0d27218500dc","E0067","USPACE仁愛帝寶站(B1月租區)",105,1,"luckypa","cityparking",25.0393163,121.5375072,"台北市","大安區","台北市大安區建國南路一段222號"
"3e7ea297-d6bb-4844-aa50-812f2b9a079d","D0552","遼寧夜市鄰近車位",1,1,"lock",NULL,25.0505384,121.5424075,"台北市","中山區","台北市中山區遼寧街101巷3號"
"3e987be1-6e3d-4f92-b6f7-721898734201","E0071","(未蓋)東區粉圓鄰近地下車位",1,0,"aiguard",NULL,25.0400188,121.5524017,"台北市","大安區","台北市大安區忠孝東路四段216巷32弄9號"
"3eb94f8e-c193-43b9-bf69-eede22911474","C0291","馨苑小料理門口車位",3,0,"lock",NULL,24.148092893158,120.66823687416,"台中市","西區","台中市西區民生北路106號"
"3ebea30d-ee70-4784-9d75-5d0e5c4b8669","A0256","宅電ChargeSmith",1,0,"lock",NULL,25.0905721,121.5238369,"台北市","士林區","台北市士林區大北路118號"
"3ef6649b-a138-413d-a2e3-6d4dcf3be2c3","F0164","USPACE北投晶泉丰旅停車場",115,1,"luckypa","microprogram",25.137871662719192,121.50435190321456,"台北市","北投區","台北市北投區泉源路19號"
"3f25cf43-b682-4ee4-9a6a-981ab4c6e554","F0250","敦富十二街停車位",8,1,"lock",NULL,24.195246,120.706231,"台中市","北屯區","台中市北屯區南興路1001號對面"
"3f651ac1-4e0d-4cfa-8c3f-05d8077deee7","C0184","台中分公司車位",4,0,"supernode",NULL,24.1763052,120.6421101,"台中市","西屯區","台中市西屯區至善路121巷17號"
"3fcb88f4-e1d5-4dcc-aa36-f4ec259ac5a6","C0088","舒服生活咖啡廳絕美車位",2,1,"lock",NULL,25.0325621,121.5508979,"台北市","大安區","台北市大安區敦化南路二段11巷42號對面"
"3fd0435b-3752-4df2-9030-5e3ed5103248","F0197","世界V1社區",1,0,"luckypa","microprogram",25.0024284,121.4940551,"新北市","中和區","新北市中和區中山路二段332巷1號"
"4075b2c1-3e92-47df-a8bc-6446338ad6a9","E0302","石牌路二段357巷車位",1,1,"lock",NULL,25.124086095034,121.52539063538,"台北市","北投區","台北市北投區石牌路二段357巷15號"
"413aecbb-ed28-4cfd-b6c1-0dba82565a35","E0073","黎明永春停車場",27,0,"subway",NULL,24.136141,120.636877,"台中市","南屯區","台中市南屯區黎明路一段963號"
"41e486d7-edfe-4ee6-af80-b0c67beaca57","F0333","宜蘭力麗威斯汀度假酒店B1充電站",100,0,"all",NULL,24.7507133,121.7128852,"宜蘭縣","員山鄉","宜蘭縣員山鄉永同路三段268號"
"41e6a97b-b750-4623-a138-20e323bda74d","D0305","桃園忠勇二街月租車位(柵欄外)",0,1,"all",NULL,24.9661119,121.3039173,"桃園市","八德區","桃園市八德區忠勇二街103號"
"42558c24-8a2e-4654-a679-5b3c5d7b72f2","D0377","USPACE國家企業中心 B3月租區",0,1,"luckypa","cityparking",25.050846,121.564138,"台北市","松山區","台北市松山區南京東路五段188號B3"
"426a2682-501d-4295-82fb-ff2b6dd81a5a","E0296","千賀汽車美容共享車位",3,0,"lock",NULL,24.1720798,120.6425052,"台中市","西屯區","台中市西屯區上仁街160號"
"4284a951-4ead-4a0a-99f9-a2449696567f","E0297","后里甲后路一段停車場",10,0,"lock",NULL,24.3099419,120.7242855,"台中市","后里區","台中市后里區義德里甲后路一段456巷25號"
"42cbd271-3171-4fdb-8ab1-d90a3b4e96f9","E0115","林口來來亭力行場",20,1,"subway",NULL,25.0761902,121.3657787,"新北市","林口區","新北市林口區文化北路一段412巷78號"
"42e31473-5d60-41b5-a736-5b8327e010cf","C0083","麥帥一橋旁月租車位(明華南京)",0,1,"aiguard",NULL,25.051133,121.569529,"台北市","松山區","台北市松山區南京東路五段348號"
"42f7c2f5-b08a-45c0-91f7-d293501cac10","C0026","道周醫院(側門)",2,1,"lock",NULL,24.1105292,120.491456,"彰化縣","和美鎮","彰化縣和美鎮和光路180號"
"4322ef48-16fb-49f0-b6dc-04512ecbadb1","F0016","信義四維精華車位",7,1,"lock",NULL,25.0322087,121.5478993,"台北市","大安區","台北市大安區四維路118號"
"43247756-64b1-481c-b31e-8ca27b623962","B0147","中和中山路車位",2,1,"lock",NULL,25.007753,121.500619,"新北市","中和區","新北市中和區中山路二段2巷89號"
"43287f14-dde6-4481-8e5f-fb996f4c26bd","D0063","信義路六段車位",1,0,"lock",NULL,25.0347321,121.5767094,"台北市","信義區","台北市信義區信義路六段76巷2弄2號"
"4348f11b-5800-4c59-9ac6-0b9c3bf53845","A0112","中南大廈",11,1,"supernode",NULL,25.036603,121.544303,"台北市","大安區","台北市大安區仁愛路四段8巷31號"
"435644dc-0271-4a0f-8f16-1d616db31d1d","F0206","潭子勝利五街停車位",13,1,"subway",NULL,24.208909,120.700324,"台中市","潭子區","台中市潭子區勝利五街23號旁"
"438c5eb3-c1c8-4e35-915a-ed2c1ba26aac","F0107","國興社區戶外車位",20,1,"lock",NULL,25.024591,121.508906,"台北市","萬華區","台北市萬華區國興路22號"
"43ed7710-b4a3-4c89-ba77-c0a8b16cb5fb","D0038","逐露天下後方車位",7,0,"supernode",NULL,24.138293104944,120.64155493537,"台中市","南屯區","台中市南屯區萬安街156號"
"440c764f-6ab8-4169-bb77-47f8f26967b8","F0292","禾榮仁春停車場",112,1,"subway",NULL,22.705471,120.349405,"高雄市","仁武區","高雄市仁武區水管路二段與仁春街口（仁武區仁春段797地號）"
"44f88a6d-f476-4c63-90b7-4a43a0b70650","B0006","中山北路車位(吉松日本料理旁)",2,1,"lock",NULL,25.0562675,121.5217642,"台北市","中山區","台北市中山區中山北路二段50巷13號之2"
"45c82432-8a69-4657-8e8a-9f3b717a6014","G0061","USPACE金毓通大樓",110,0,"luckypa","telexper",25.045351,121.517764,"台北市","中正區","台北市中正區中山南路2巷"
"461c8751-c978-4e3c-95ae-7cb4bb6b8b1f","F0075","富邦高雄金融中心",0,1,"luckypa","microprogram",22.6320637,120.3130088,"高雄市","新興區","高雄市新興區六合一路1號"
"4637ac67-542d-4b95-885a-b2f584018c4e","F0087","極美山莊富山路車位",4,1,"lock",NULL,24.99006063132479,121.55271214233531,"台北市","文山區","台北市文山區富山路"
"463f3e1f-575f-4280-83de-15030d803552","C0086","安和路兆豐銀行鄰近車位",2,1,"lock",NULL,25.030255769879,121.55244505894,"台北市","大安區","台北市大安區安和路二段73號"
"46ae1743-a7da-4fe9-8954-9527b18f5118","C0312","三德大飯店(右側)",8,1,"supernode",NULL,25.0647678,121.5185812,"台北市","大同區","台北市大同區承德路三段47號"
"46e9b6f8-7405-4d6a-a76e-8974f68b95f1","B0234","大安森林公園(近新生南路)",2,1,"lock",NULL,25.0346447,121.5337743,"台北市","大安區","台北市大安區新生南路一段161巷3號"
"47049197-0a5a-4294-9114-b3e7c6976a37","G0004","明輝商業大樓1F平面車位",2,1,"lock",NULL,25.053527,121.543578,"台北市","中山區","台北市中山區復興北路164號"
"473dbbac-af0b-46a5-82d5-aac4f33fd4ed","E0055","中油福林充電樁",3,0,"lock",NULL,25.093062557532,121.5272730553,"台北市","士林區","台北市士林區中山北路五段"
"474fee79-a9f6-4c13-aedc-2baf06ac88a3","E0120","大安區寵物生活館車位",1,1,"lock",NULL,25.0361935,121.5482164,"台北市","大安區","台北市大安區四維路17號"
"47865ab8-1380-40af-a12a-7ec97d534c08","C0369","松山八德路易莎車位",1,1,"lock",NULL,25.050319452349,121.58089614645,"台北市","南港區","台北市南港區八德路四段768巷1弄8號"
"47be5819-b479-4a73-bd2e-f41db163c1a2","D0083","合江錦州街鄰近車位",2,1,"lock",NULL,25.060801,121.537815,"台北市","中山區","台北市中山區合江街170巷19號"
"47db8489-6d5c-4bc1-86ce-c320835265ee","B0262","馬偕醫院鄰近車位",1,1,"lock",NULL,25.057526,121.522457,"台北市","中山區","台北市中山區中山北路二段84巷6號"
"48b027a8-eca5-4700-b797-641240d6c128","E0235","博館一街共享車位",2,0,"lock",NULL,24.1540925,120.6681017,"台中市","北區","台中市北區博館一街30號"
"4b4fcbf2-35d9-4b37-b8d8-ca63454e206d","B0254","長安國小鄰近車位",2,1,"lock",NULL,25.049025,121.531092,"台北市","中山區","台北市中山區松江路64巷22號"
"4bd60e64-1683-4aa3-a44f-1027cc884128","F0334","三重安慶街1樓室內車位",2,1,"lock",NULL,25.0677154,121.4912169,"新北市","三重區","新北市三重區安慶街246、248號"
"4c358827-b296-4143-99f3-d88c19758792","A0240","新北市政府行政大樓地下共享停車場(B3)",1,1,"supernode",NULL,25.012608384316,121.4650396699,"新北市","板橋區","新北市板橋區中山路一段161號"
"4ca674cf-2144-4813-8d24-fe69b249a2bb","C0327","(未綁定)西屯區安和路127號",30,0,"luckypa",NULL,24.181469,120.624464,"台中市","西屯區","台中市西屯區安和路127號"
"4ce57e3e-4f2d-4412-8b4f-ca364e99d1ac","F0205","到場手工洗車訂閱服務",0,1,"lock",NULL,25.0577125,121.5430245,"台北市","中山區","台北市中山區民生東路三段"
"4cff8b46-d758-48bf-a756-7e820ae1d928","B0263","成功郵局鄰近車位",33,1,"lock",NULL,25.025716995982,121.54518963236,"台北市","大安區","台北市大安區和平東路二段311巷59號"
"4d1312c3-99a0-4130-8f11-971f7dc56284","D0176","忠孝名邸車塔月租車位",0,0,"elevator",NULL,25.0483909,121.586409,"台北市","南港區","台北市南港區忠孝東路六段178號"
"4d171dd2-b75d-43f0-b8d5-f517acfed2b5","A0118","同安國小旁車位",10,1,"supernode",NULL,25.02224,121.299348,"桃園市","桃園區","桃園市桃園區同安街560號"
"4d21d043-e90e-48e4-b5b1-edeab3e98c48","G0060","USPACE台新人壽大樓",118,1,"luckypa","telexper",25.052022,121.5620323,"台北市","松山區","台北市松山區南京東路五段161號"
"4d4916d9-17b9-4e28-8170-0d842213ce2f","C0220","唐采文具五權西路車位",9,0,"lock",NULL,24.139938,120.647767,"台中市","南屯區","台中市南屯區五權西路二段245號"
"4d82ce19-dcd1-4a30-9faf-667a588ec96a","D0070","市民大道二段精華車位",0,1,"lock",NULL,25.047258,121.528185,"台北市","中山區","台北市中山區長安東路一段52巷9弄1-1號"
"4d988c2b-406d-4a17-92d2-d9746dc81253","E0160","林森華國車位(23巷)",5,1,"lock",NULL,25.065857651912456,121.52529850393262,"台北市","中山區","台北市中山區雙城街23巷20號"
"4db558f0-3941-44f2-ad52-24d646096610","E0265","USPACE富邦敦北大樓",83,1,"luckypa","cityparking",25.045587,121.5483734,"臺北市","松山區","臺北市松山區敦化南路1段108號"
"4ea13f66-2258-4a9f-a1ef-a2f5ec40396e","A0270","市政府捷運站臨近車位",10,1,"supernode",NULL,25.041613888916,121.56605903657,"台北市","信義區","台北市信義區忠孝東路五段31巷18弄19號"
"4ed768e0-7a3a-45ad-8767-2c524a82bfc4","C0228","GOGO HOTEL逢甲館(週五六日不開放)",9,0,"supernode",NULL,24.175898634942,120.64289508629,"台中市","西屯區","台中市西屯區至善路188號"
"4f2733c6-d80e-48f0-8b09-5650e1fff8ae","E0095","鹿港柑仔店精華車位",2,1,"lock",NULL,24.9920696,121.4564008,"新北市","土城區","新北市土城區廣興街14號"
"4f3c8a2a-0522-4d46-a97b-37942a066711","C0079","USPACE中油福林站一場",47,1,"luckypa","microprogram",25.092602,121.52743,"台北市","士林區","台北市士林區中山北路五段"
"4fa97453-8f16-4dd7-a007-cb260fd16cbb","E0080","忠勇一街好好停",5,1,"lock",NULL,24.965658,121.305088,"桃園市","八德區","桃園市八德區忠勇一街72號"
"5000e3df-ae74-4646-a580-eabd29329bd1","D0545","員山路精華車位(辰淵合作)",6,1,"lock",NULL,25.00676,121.48066,"新北市","中和區","新北市中和區員山路466巷19號"
"5053da60-caf6-4b9c-9d4e-8443a39e5349","C0028","現代美典停車場",7,1,"subway",NULL,24.0718967,120.5391977,"彰化縣","彰化市","彰化縣彰化市民族路267號"
"5070a7db-4b3a-48e3-a97e-a3607b27d293","C0217","忠勤街車位",7,0,"supernode",NULL,24.137090137539,120.66674108201,"台中市","西區","台中市西區忠勤街40號"
"50a25218-3111-4278-ac91-c7897bbe939c","A0120","仁和大廈",3,1,"supernode",NULL,25.038464,121.551238,"台北市","大安區","台北市大安區安和路一段49巷5號"
"50ae6e1d-68a8-4a1a-8d94-391db0ddfd66","D0161","新莊福前街精華車位",12,0,"supernode",NULL,25.060148,121.4625204,"新北市","新莊區","新北市新莊區福前街500號"
"50bbb0f7-c4ff-42f0-aade-932c16eb17f2","D0477","廣興街有棚車位",1,1,"lock",NULL,24.99214,121.456724,"新北市","土城區","新北市土城區廣興街2號"
"51090a28-47f8-4024-91b6-96e642dcd459","D0543","C11世正南軟大樓(B2汽車臨停區、B3卸貨區)",47,1,"luckypa","parkinsys",25.0571105,121.614302,"台北市","南港區","台北市南港區三重路66號B2"
"51682ece-08ea-4b2d-9836-03935cf99bf2","A0290","TTA鄰近車位",0,1,"lock",NULL,20.69727,116.735495,"東沙","東沙","東沙東沙東沙"
"517bf9a3-0969-4213-a88e-d166534ff673","C0063","永吉麥當勞後方車位(俥亭合作)",1,1,"lock",NULL,25.041595,121.571241,"台北市","信義區","台北市信義區忠孝東路五段275巷15號"
"52ad5328-bb9e-441b-bc6d-1bc1f4a718fc","E0314","軍福十六路共享車位",4,0,"subway",NULL,24.1749037,120.7202977,"台中市","北屯區","台中市北屯區和平里軍福十六路345號對面"
"52b33ad3-1176-4654-825f-a336cc8b4015","G0126","USPACE瑞光一",13,1,"supernode",NULL,25.07521863821793,121.57270069156719,"台北市","內湖區","台北市內湖區瑞光路316巷"
"53b5dfcb-67f9-4469-a6cd-338f022c8d4f","F0088","大直典華旗艦大樓",161,1,"luckypa","parkinsys",25.0836968,121.5549291,"台北市","中山區","台北市中山區植福路8號"
"53c06397-9394-436a-a47b-2f8b6bf39c81","G0065","新大龍國小鄰近車位",1,1,"lock",NULL,25.073307,121.518256,"台北市","大同區","台北市大同區哈密街68巷18號"
"548af4c0-baf1-4705-859f-aa9970b6d337","E0138","寶林寺後方停車場",10,0,"subway",NULL,24.1048492,120.6331373,"台中市","烏日區","台中市烏日區麻園東三街"
"54b4a173-9a3f-431f-9ad4-fffe51c80f76","D0328","信義GD+車位",4,1,"supernode",NULL,25.033599274627,121.55870169254,"台北市","信義區","台北市信義區光復南路473巷395號"
"550293b3-8127-4e91-b671-87f9527b59b3","G0058","土城永寧月租場",0,0,"subway",NULL,24.9684603,121.4388122,"新北市","土城區","新北市土城區金城路一段2號"
"553836a0-0d96-4c0d-a0b3-e7a603624786","C0219","萬達寵物公園(大光街側)",1,1,"lock",NULL,24.150746,120.647767,"台中市","南屯區","台中市南屯區公益路二段169號"
"558d3167-4bd9-43a5-bd44-c09dc9aa46cd","D0497","鹿港正興停車場(柵欄外)",5,0,"lock",NULL,24.059402,120.436078,"彰化縣","鹿港鎮","彰化縣鹿港鎮正興路66號"
"55fc1772-d61e-4ea5-baf9-1bbdcd3f3c53","D0123","三重長壽安和車位",2,1,"lock",NULL,25.0682046,121.5011331,"新北市","三重區","新北市三重區長壽街53號"
"561058fd-b98d-400d-b638-0abf868c8f9e","C0213","師大附中鄰近車位",1,0,"lock",NULL,25.035559,121.542725,"台北市","大安區","台北市大安區信義路三段147巷17弄6號"
"5642a5c8-796f-468d-aa82-b5dc901392cc","C0263","大德街車位",2,1,"lock",NULL,24.161452285502,120.67841778408,"台中市","北區","台中市北區大德街163號"
"56a2c8d1-7a56-4396-a7f7-65dd8ad58fd7","C0110","嘉興基隆路精華車位",6,1,"lock",NULL,25.020981,121.550029,"台北市","大安區","台北市大安區基隆路二段291巷15號"
"578c6857-b5b9-4e42-91b7-9d18df6309a8","F0026","振興路412巷車位",1,0,"lock",NULL,24.129073,120.704497,"台中市","東區","台中市東區東信里振興路412巷39弄1號"
"58393cf9-59f2-4dab-8ca7-5eb540252c37","D0168","北投溫泉路機械月租車位",0,1,"elevator",NULL,25.1356057,121.5058341,"台北市","北投區","台北市北投區溫泉路73巷6號"
"588286ea-7464-4c9b-bf01-b72e6c1dbaa2","F0237","日月町第一停車場",24,1,"luckypa","microprogram",23.972269,120.926925,"南投縣","埔里鎮","南投縣埔里鎮中山路四段235號"
"589b6a96-9b4f-4e4f-acf7-ba692d065c8c","A0253","公路總局旁車位",1,1,"lock",NULL,24.983488,121.516978,"新北市","新店區","新北市新店區永平街21號"
"5939da35-7a62-45a2-a06c-1d77a7cc775f","F0108","立德街23巷車位",6,1,"lock",NULL,24.135066,120.686298,"台中市","東區","台中市東區立德街23巷"
"5960607f-ee04-48d2-b466-829178d4906c","D0243","安和路二段鄰近車位",1,1,"lock",NULL,25.0317932,121.5521661,"台北市","大安區","台北市大安區安和路二段32巷1號"
"5a7abf49-822a-4d01-b372-bb47fc5395fa","G0056","至誠公園鄰近停車場",4,1,"lock",NULL,25.100986,121.537312,"台北市","士林區","台北市士林區至誠路一段"
"5af59b1a-80ed-4084-9887-13c9578b9b35","A0261","南京三民精華車位",3,1,"supernode",NULL,25.050934,121.561895,"台北市","松山區","台北市松山區南京東路5段66巷3弄21、23號"
"5af5f39d-d7af-412f-a5de-656107f59409","A0289","延平南路路邊車位",2,1,"lock",NULL,25.0344282,121.5078917,"台北市","中正區","台北市中正區延平南路179巷7號"
"5b25361e-c315-4498-9ce2-2a537109abcb","C0188","上石南路車位",1,1,"lock",NULL,24.174002,120.644301,"台中市","西屯區","台中市西屯區西屯路二段上石南六巷2號"
"5b33a134-c803-49d8-9423-6416a252c0bc","D0428","光復南路417巷精華車位",1,1,"lock",NULL,25.0369767,121.5580566,"台北市","信義區","台北市信義區光復南路417巷47號"
"5b3ddf09-e550-4e4f-a15c-4ba7dcd9577d","E0195","沙鹿明秀二街停車場",10,1,"subway",NULL,24.2121079,120.5796169,"台中市","沙鹿區","台中市沙鹿區明秀二街118巷25號"
"5b401de7-5227-4a3a-8143-c5f7e19b58e9","A0304","唭哩岸鄰近車位(身障優先)",1,1,"lock",NULL,25.117947,121.505781,"台北市","北投區","台北市北投區吉利街106巷7號"
"5b465102-a24e-4904-a4b1-ddd3ec3df73b","F0157","捷報華廈停車場",14,1,"subway",NULL,24.182515,120.643843,"台中市","西屯區","台中市西屯區福星路161號"
"5bac080f-79c1-45ec-b352-8d0f05e96627","E0151","士林福林站三場",7,0,"lock",NULL,25.0929209,121.5270045,"台北市","士林區","台北市士林區中山北路五段505巷33號"
"5c20e4ed-eff9-478c-87e2-7df1f892c817","G0049","自由路二段",6,0,"lock",NULL,24.1387382,120.6810049,"台中市","中區","台中市中區自由路二段18號號"
"5c5a5002-4aee-4bb0-bb66-2429a80df0ac","C0069","松德路精華車位",2,0,"lock",NULL,25.038055,121.577607,"台北市","信義區","台北市信義區松德路25巷52號"
"5cbb1e95-f582-40b7-8843-419b7d1bb71c","D0092","四維路216巷精華車位",1,1,"lock",NULL,25.0260634,121.5473608,"台北市","大安區","台北市大安區四維路216巷11-1號"
"5d17cef4-593d-412e-8ac9-eff2ec340b06","G0025","聖安路近中山路鄰近車位",6,1,"lock",NULL,24.088735,120.566385,"彰化縣彰化市聖安路17號","彰化市聖","彰化縣彰化市聖安路17號彰化市聖聖安路17號（面對空地）"
"5d1f8428-a4a3-43d5-ab80-f41b80e64280","D0048","西屯福上巷車位",10,1,"supernode",NULL,24.174278,120.645583,"台中市","西屯區","台中市西屯區福上巷319弄20號"
"5d2f3e12-cc34-4a28-83b9-28bd3de9afc3","E0084","龍江C-Cubed車位",2,0,"lock",NULL,25.050812,121.540849,"台北市","中山區","台北市中山區龍江路71巷14號"
"5dc6964b-149a-4442-8511-412136e32980","D0544","歌林商業大樓B2機械月租車位",0,1,"aiguard",NULL,25.04313,121.51306,"台北市","中正區","台北市中正區重慶南路一段86號"
"5e050465-4013-4cbd-89d4-a771ccf4cb00","B0283","文昌街鄰近車位",3,1,"lock",NULL,25.032841,121.550154,"台北市","大安區","台北市大安區文昌街44號"
"5e247a54-152e-46a1-a752-9124ee8f9cd9","F0276","USPACE台北君悦酒店",500,1,"luckypa","microprogram",25.0351708,121.5628669,"台北市","信義區","台北市信義區松壽路2號"
"5e52f186-7a9d-4c5a-8bcc-79edd5b9ab68","D0002","區域探索館停車場",140,1,"luckypa","microprogram",25.139957,121.797923,"基隆市","中正區","基隆市中正區北寧路367號"
"5e6bcb85-b170-4868-b9ca-927f77913a13","E0253","民生重慶精華車位(寧夏夜市旁)",2,1,"lock",NULL,25.0565497,121.5127657,"台北市","大同區","台北市大同區重慶北路二段80巷29號"
"5e9395f8-eeb1-4466-ab51-7ff474b517a1","E0072","重慶國小鄰近車位",1,0,"lock",NULL,24.995875,121.4631171,"新北市","板橋區","新北市板橋區國慶路182巷22號"
"5ea52bc6-3b38-4a95-b422-aab03915d396","E0320","Bellyflopp Cafe(花園新城)",16,1,"lock",NULL,24.933230627637,121.55333620926,"新北市","新店區","新北市新店區花園六路二段1號"
"5ec4e3ef-ed0c-497c-94f6-b6fcff456268","G0136","三胡町義式餐館停車位",6,1,"lock",NULL,22.988189,120.216183,"台南市","東區","台南市東區慶東街85號旁空地"
"5ef33bf6-ccf4-4d60-824a-c65d624f7588","D0241","華山民族鄰近停車位",8,1,"subway",NULL,24.0753855,120.5399229,"彰化縣","彰化市","彰化縣彰化市民族路423號"
"5f7add94-6426-4b3c-82bb-9266fc97f523","E0061","USPACE仁愛帝寶站",552,1,"luckypa","cityparking",25.0393163,121.5375072,"台北市","大安區","台北市大安區建國南路一段222號"
"5fb867d1-3ec5-4fb2-bc92-2fab12f44b48","E0093","USPACE新莊昌德街場",0,1,"subway",NULL,25.054964,121.455766,"新北市","新莊區","新北市新莊區昌德街81號"
"600c7916-6417-45eb-a1c9-40557eb7801e","B0041","上引水產鄰近車位",7,1,"supernode",NULL,25.0648657,121.5376506,"台北市","中山區","台北市中山區建國北路三段67號"
"6039d0e0-7bc4-4cb1-9ed7-fe864dbefc99","C0127","光復國小鄰近車位(頂棚下)",1,1,"lock",NULL,25.040319360729,121.55573356044,"台北市","大安區","台北市大安區光復南路260巷38號"
"603abe54-6154-448d-afac-af2cb60b3ad3","F0289","永和路一段車位(近樂華夜市)",2,1,"lock",NULL,25.0065883,121.5126697,"新北市","永和區","新北市永和區永和路一段47號"
"603da310-5d4a-41d8-b85b-652016936191","E0156","USPACE南山台南廣場大樓",500,1,"luckypa","parkinsys",23.00973,120.205884,"台南市","北區","台南市北區育德路188號"
"6041fcfa-54ff-4e20-a9dd-d0eee9d413ac","D0364","協和祐德高中鄰近車位",2,1,"lock",NULL,25.042617,121.582488,"台北市","信義區","台北市信義區忠孝東路五段790巷23弄2號"
"60b54715-9959-4c7a-bed3-d00ade28d80b","D0367","彰化竹和路停車場",10,1,"subway",NULL,24.0819562,120.5647631,"彰化縣","彰化市","彰化縣彰化市竹和路200巷89號對面"
"60ea7d2b-e356-437b-abaf-4d2ed635cc4b","D0488","承德路四段車位",1,1,"aiguard",NULL,25.0822899,121.5234821,"台北市","士林區","台北市士林區承德路四段79號"
"61418f1e-b9cd-49a6-9f25-f0e9432b3f9a","E0083","康寧路三段189巷鄰近車位",7,1,"lock",NULL,25.0723799,121.6128707,"台北市","內湖區","台北市內湖區康寧路三段189巷80弄4號"
"61a7d330-a803-417a-b207-3c0d76ab0f47","E0089","黎明永春五福街車位(地鎖)",0,0,"lock",NULL,24.136338,120.636264,"台中市","南屯區","台中市南屯區五福街109號對面"
"61ddbe8e-0781-4961-8b03-b3222b560835","A0034","遼寧街撥筋堂臨近車位",2,1,"supernode",NULL,25.0486938,121.5432043,"台北市","中山區","台北市中山區遼寧街45巷32號"
"62490fae-ef5b-429f-b966-12d354cc45d3","E0301","螢橋國小鄰近車位",1,1,"lock",NULL,25.0249391,121.5155855,"台北市","中正區","台北市中正區詔安街28之2號"
"62497233-108c-489d-9250-5dd44083e1f4","G0064","USPACE崇德街停車場",20,1,"lock",NULL,25.02396111693178,121.55607801529204,"台北市","信義區","台北市信義區崇德街"
"62a45333-af20-4a33-a0b3-01990f9d5cd9","G0075","大甲錦上街",8,1,"lock",NULL,24.3544582,120.6270159,"台中市","大甲區","台中市大甲區錦上街123號"
"63145539-be62-4988-bca6-784f19240c1d","E0069","天墅",9,1,"subway",NULL,25.0421245,121.632387,"新北市","汐止區","新北市汐止區東勢街201巷129弄67號"
"63159b1d-bfe3-4b11-b13f-4bcedf8ee3aa","C0331","福興宮車位(吉林路)",2,1,"lock",NULL,25.0571541,121.5306653,"台北市","中山區","台北市中山區民生東路二段90巷22號"
"63719a30-cf12-476c-8522-364c0647d2bd","A0134","樂華夜市鄰近車位",1,1,"lock",NULL,25.0067006,121.5116996,"新北市","永和區","新北市永和區保平路93巷1號"
"63a5a8f0-f747-4834-8257-4e06c21d35e4","E0215","USPACE安盛好樂停中山停車場",54,1,"luckypa","cityparking",23.984818,121.603664,"花蓮縣","花蓮市","花蓮縣花蓮市中山路412巷18號旁邊空地"
"64160f98-b132-4ab1-b45e-29e86050f179","G0030","辛亥公園鄰近車位",3,1,"lock",NULL,25.002069,121.557169,"台北市","文山區","台北市文山區興德路62巷5號"
"645d12ed-e2c9-4c02-a0a6-4cfdcf8dd6e2","F0317","USPACE正大樂富停車場 B3(月租區)",0,0,"all",NULL,25.1046935,121.5140886,"台北市","北投區","台北市北投區文承路28號"
"648a611c-3bbc-4bbc-b088-7a6b7c121c70","D0379","USPACE國家企業中心",80,1,"luckypa","cityparking",25.050988,121.564033,"台北市","松山區","台北市松山區南京東路五段188號B5"
"64cb237a-45a5-40dd-9752-4e532cc7e3b5","C0295","Udrive",1,0,"all",NULL,25.0583746,121.5379568,"台北市","中山區","台北市中山區合江街100巷27號"
"651c600c-102d-4e84-887e-b61dc31e022b","A0268","敦化南路161巷車位",1,0,"lock",NULL,25.0435627,121.5514461,"台北市","大安區","台北市大安區敦化南路一段161巷47號"
"65a57964-65f6-4fdd-8a22-4c19df4bfc7c","C0163","松山文創鄰近車梯車位",5,1,"elevator",NULL,25.042890576855,121.56280227086,"台北市","信義區","台北市信義區忠孝東路四段553巷16號B1~B2"
"65bbbfec-cc8f-420d-9324-740a2863971b","E0256","師大功德站(38巷)",3,1,"lock",NULL,25.024642153132064,121.53062945528174,"台北市","大安區","台北市大安區泰順街38巷12號"
"65ca797b-521a-4ad0-a0ae-f621b7b2e45b","E0133","板橋大同街精華車位",2,1,"lock",NULL,25.027424,121.478519,"新北市","板橋區","新北市板橋區大同街38號"
"66623076-f000-4487-a3c4-1df141229003","F0112","中和圓通停車場",4,1,"subway",NULL,24.9908075,121.4919505,"新北市","中和區","新北市中和區圓通路278號"
"66d439d0-cef1-4e06-af8f-a5915d273d96","E0263","南京東123巷車位",2,1,"lock",NULL,25.0536296,121.5611451,"臺北市","松山區","臺北市松山區南京東路五段123巷8弄15號"
"66f34847-b242-40ee-8bcf-af8a54dc8ee9","D0551","鼎康華廈精華車位(延吉街)",3,1,"lock",NULL,25.042364,121.55467,"台北市","大安區","台北市大安區延吉街137巷7弄8號"
"678218d6-975e-42a4-90a1-02157fe76360","F0248","石平街停車(月租車位)",5,1,"lock",NULL,24.179708,120.663946,"台中市","西屯區","台中市西屯區石平街38號"
"67a7de92-e732-4f4b-83f0-3d63c07297e5","C0298","敦化四維精華車位",3,1,"lock",NULL,25.0278137,121.5477774,"台北市","大安區","台北市大安區四維路176巷2號"
"67af29ec-42b1-4ef0-99af-a48cfd9c5003","E0315","林口東湖路停車場",8,1,"subway",NULL,25.073374,121.382912,"新北市","林口區","新北市林口區東湖路163號"
"67ed6cfd-f0d8-44a4-9568-8b9331468710","G0128","永康四維龍埔街口",7,1,"lock",NULL,23.035287,120.251685,"台南市","永康區","台南市永康區四維街龍埔街交叉口"
"68c98592-f4b5-477a-b289-0045bae4c03a","C0287","長榮桂冠酒店旁尊榮車位",1,1,"lock",NULL,25.0490479,121.5335369,"台北市","中山區","台北市中山區松江路63巷1-1號"
"691a7bde-c54e-445d-9f1a-51bf04ae3a7b","F0190","萬隆街79號",0,1,"aiguard",NULL,25.0001991,121.5366189,"台北市","文山區","台北市文山區萬隆街79號"
"6970e3ab-34e8-48a6-be1f-0c966c1dae8e","B0177","永固港墘站車位(柵欄外)",0,1,"lock",NULL,25.078206,121.577875,"台北市","內湖區","台北市內湖區內湖路一段600巷10號"
"69797c8c-d848-4915-bdbf-76a0f4a121b7","D0382","USPACE新豐松林站",82,1,"luckypa","microprogram",24.870473931688,120.99114671206,"新竹縣","新豐鄉","新竹縣新豐鄉博學街100號對面"
"699a8ba2-b94e-4675-87b9-381f4398e24f","G0063","菜豚屋精誠五街車位",3,1,"lock",NULL,24.155471,120.657379,"台中市","西區","台中市西區精誠五街19號"
"69b9b755-e5a3-4c21-a701-bf1f3bf86205","D0138","民權西路捷運站月租車位",0,1,"subway",NULL,25.0633431,121.5185325,"台北市","大同區","台北市大同區承德路三段3號"
"69bdc91d-6bef-4d89-b2ef-2cc3ed4207b7","G0130","新竹香山靜思綠能站",28,1,"recognition",NULL,24.785055516092484,120.9196766820972,"新竹市","香山區","新竹市香山區中華路五段208巷20號對面"
"69c9756b-8c6b-4185-bd0c-9bee0346d986","B0233","大潤發中和店",142,1,"luckypa","telexper",25.00361,121.499242,"新北市","中和區","新北市中和區中山路二段228號"
"6aee81f6-e479-4710-9fa5-fb11bfd5762f","D0041","自強路一段正義北路口鄰近車位",1,1,"lock",NULL,25.066491,121.496981,"新北市","三重區","新北市三重區自強路一段68號"
"6be25f28-c730-44a4-b679-92f9ca64137c","D0157","哈拉影城鄰近車位",1,0,"lock",NULL,25.0695675,121.6086639,"台北市","內湖區","台北市內湖區民權東路六段280巷86號"
"6bff0a9b-378f-4b05-a782-c4bc33e0fac6","G0007","USPACE大里益民站",81,1,"luckypa","microprogram",24.109841,120.693405,"台中市","大里區","台中市大里區益民路一段62巷19號"
"6c41fd31-ef76-4181-ba86-d80cad79fa86","C0072","竹圍國小鄰近月租車位",0,1,"lock",NULL,25.125896878452,121.46383976908,"新北市","淡水區","新北市淡水區自強路33號旁空地"
"6c807be6-ab4f-44c8-8bf3-f06ab8a358b9","E0310","惠文五街共享車位",3,0,"lock",NULL,24.1571273,120.6398563,"台中市","西屯區","台中市西屯區惠來里惠文五街66號"
"6ca6af48-f027-4651-9567-818c932de910","F0172","USPACE吉祥平面停車場",32,1,"luckypa","microprogram",25.05025,121.561119,"台北市","松山區","台北市松山區光復北路11巷81號"
"6cd386c9-c767-4602-962d-cad1f1bf16ff","F0005","愛山林企業總部大樓",171,1,"luckypa","parkinsys",25.0539934,121.5399867,"台北市","中山區","台北市中山區龍江路126號"
"6cf61945-8ba6-45b7-b04e-4a4c0a8ceca1","C0194","蘆洲民族路鄰近車位",1,0,"lock",NULL,25.087832046717,121.4788222836,"新北市","蘆洲區","新北市蘆洲區信義路280巷28號"
"6d01764c-2f33-434e-89e2-0e171320a5cd","G0071","建成大廈二場",11,1,"supernode",NULL,25.040867,121.550496,"台北市","大安區","台北市大安區忠孝東路四段168號後方空地"
"6d9493c0-9889-4bbe-921b-75c59b4a38ef","F0141","雀客台北杭州",28,0,"luckypa","microprogram",25.0401193,121.52565,"台北市","中正區","台北市中正區杭州南路一段12號"
"6da961f6-0b1a-4d65-93f0-b952248c779e","B0264","USPACE四周年紀念品店",3,0,"lock",NULL,20.6974,117.735491,"台北市",NULL,NULL
"6db87cab-a650-4412-9c90-74393a323d8b","F0101","棧車內湖成功安康站",5,1,"subway",NULL,25.0607279,121.591712,"台北市","內湖區","台北市內湖區安康路2-12號"
"6e20d9e3-0486-49d5-bb8a-674d02d27384","F0198","中山北路七段巷弄月租車位",0,1,"lock",NULL,25.1230615,121.5356845,"台北市","士林區","台北市士林區中山北路七段114巷63號"
"6e5d7adf-0ee5-409a-a7a7-0b4a50506012","G0037","日月町第三停車場",148,0,"luckypa","microprogram",23.97329,120.926054,"南投縣","埔里鎮","南投縣埔里鎮中山路四段235號對面"
"6ef49213-07fd-4b1c-bcf0-000ac7fefe50","F0266","內湖思恩堂後方車位",1,1,"lock",NULL,25.07905017855242,121.5931239701977,"台北市","內湖區","台北市內湖區星雲街90號"
"6f7ce6b0-dd93-4ea3-a528-bebb22dfa068","C0309","靜心高中鄰近車位",0,1,"lock",NULL,24.9977666,121.5464668,"台北市","文山區","台北市文山區興隆路二段22巷9弄11號"
"6f814b09-2f1e-4f14-9c06-4fe75ba4ce3f","D0172","東湖精華車位",8,1,"lock",NULL,25.070976,121.613839,"台北市","內湖區","台北市內湖區康寧路三段189巷46弄1號對面"
"6fbe7250-11ad-44ad-b008-70c677baa544","F0165","中崙旗艦安東場",126,1,"recognition",NULL,25.045434684904773,121.54034587021147,"台北市","中山區","台北市中山區安東街16巷22弄"
"6ff1149e-b0e0-4844-a4ee-3d4417592d82","C0212","敦南金三角車位",4,1,"supernode",NULL,25.031213,121.550143,"台北市","大安區","台北市大安區敦化南路二段63巷21弄9號"
"703bfb85-46ee-492b-bcff-ae907dbd4e09","D0018","遠企之戀B3機械月租車位",0,1,"aiguard",NULL,25.0241532,121.5517225,"台北市","大安區","台北市大安區和平東路三段106號"
"70f4955e-2b10-402b-9b7f-439341ad4d38","C0077","永安市場鄰近車位(新興街)",1,1,"lock",NULL,25.001854,121.507775,"新北市","永和區","新北市永和區中和路305巷20弄對面"
"71772681-973d-4760-8b3f-1ab38f51db41","E0094","立飛多功能創意組合屋",2,1,"lock",NULL,24.2478087,120.6915322,"台中市","神岡區","台中市神岡區中山路303號"
"71c2760e-d2e5-4e78-8659-64af105357f9","D0081","宏泰世界大樓B2停車場",50,1,"luckypa","microprogram",25.056853299874,121.54819360178,"台北市","松山區","台北市松山區敦化北路168號"
"7244f04a-e248-42fc-975f-d4f7e9b69b20","G0038","台灣智匯總部停車場",14,1,"supernode",NULL,25.0629119,121.456658,"新北市","新莊區","新北市新莊區新知五路15號"
"724fe10f-c987-49d6-bea2-0fb9d9270c13","A0309","新莊思源路287巷車位",11,1,"supernode",NULL,25.048375,121.459672,"新北市","新莊區","新北市新莊區思源路287巷"
"7260b536-a56b-4970-aa1c-0a4460133da8","C0059","延平長安精華車位",4,1,"supernode",NULL,25.051164,121.512428,"台北市","大同區","台北市大同區重慶北路一段26巷66號"
"72c1680e-46f0-4fbf-82fa-61332f9c3709","C0171","新店小碧潭月租場(力行路)",0,1,"subway",NULL,24.966838,121.53809,"新北市","新店區","新北市新店區力行路中華路83巷交叉口"
"73d65af2-5768-4667-a1ae-615d5d1f8a76","G0146","華平公園鄰近車位",7,0,"lock",NULL,22.9947061,120.1713725,"台南市","安平區","台南市安平區國平路417號"
"745bea11-3deb-430d-a4b2-774d94605622","D0546","台北機廠鄰近車位",1,1,"lock",NULL,25.0481445,121.564606,"台北市","松山區","台北市松山區市民大道五段175號"
"74b86cdb-2824-47d0-adf1-08be71f9a5b3","G0016","USPACE新莊中央一場",68,1,"luckypa","cityparking",25.05863126,121.4472696,"新北市","新莊區","新北市新莊區新北大道四段135號"
"750fcd1f-a4cd-45b8-a7b7-b7798ee9dd18","G0073","光復南路260巷1號旁車位",2,1,"lock",NULL,25.040115,121.557154,"台北市","大安區","台北市大安區光復南路260巷1號"
"756b19e9-5ad3-4116-8d1e-cc180b27a6a4","A0288","力上西服車位(國父紀念館旁)",2,1,"supernode",NULL,25.0404989,121.561965,"台北市","信義區","台北市信義區逸仙路50巷2號"
"763e6f7b-cae2-4c55-bc3c-12bd2494aca0","A0274","永春大廈(波記茶餐廳對面)",2,1,"lock",NULL,25.04248,121.553078,"台北市","大安區","台北市大安區忠孝東路四段223巷20弄2號"
"76caed7d-fcce-47c4-ab68-ee8036e0060f","G0140","特爾電力-苗栗國華超充站",3,0,"all",NULL,24.5749467,120.8194039,"苗栗縣","苗栗市","苗栗縣苗栗市國華路501號"
"76d16782-8960-470e-bb88-9d7a262fc809","F0074","振宇五金嘉義中興店",6,1,"lock",NULL,23.477774,120.428932,"嘉義市","西區","嘉義市西區高鐵大道"
"7720e76f-f2a1-46be-b59d-d9fe3894c512","B0213","敦化國中鄰近車位",5,1,"lock",NULL,25.052389451466,121.54675597863,"台北市","松山區","台北市松山區南京東路三段303巷6弄1號"
"7782079a-8841-46cf-bfae-98df326d1018","A0146","民生社區精華車位(新中街)",1,1,"lock",NULL,25.061049,121.560214,"台北市","松山區","台北市松山區新中街48號"
"77a64b1b-04a1-42cb-8dfc-f4e2d593536c","E0270","建國路176巷有棚車位",2,1,"subway",NULL,24.985721,121.309066,"桃園市","桃園區","桃園市桃園區建國路176巷7號"
"77ce7371-b30b-413d-a7ab-0deb312cc909","E0246","保平路93巷車位(鄰近樂華夜市)",2,1,"lock",NULL,25.006855,121.511584,"新北市","永和區","新北市永和區保平路93巷3號"
"77f52030-4ba1-4ff9-85ce-23a311ab3872","B0043","熱海溫泉路車位(後門)",5,1,"supernode",NULL,25.136378,121.509449,"台北市","北投區","台北市北投區溫泉路99號"
"785a5e00-df27-439b-abae-2d69c8da251d","D0465","天母棒球場士東路鄰近車位",0,1,"lock",NULL,25.112446846962,121.53592372467,"台北市","士林區","台北市士林區士東路266巷6弄11號"
"7875df45-625e-4698-a9a2-741490c73ed4","E0009","中和皇家經典精華車位",1,1,"lock",NULL,25.000312,121.472598,"新北市","中和區","新北市中和區國光街2巷1號"
"78f56307-b72b-4a2a-a819-d69a87b132cc","F0128","USPACE中崙旗艦中場",43,0,"luckypa","uwash",25.0468348,121.5398872,"台北市","中山區","台北市中山區八德路二段205號"
"791bc095-bcc4-41c7-9622-ee3623210f76","A0148","敦南誠品後巷車位(新力大廈)",4,1,"lock",NULL,25.038962,121.551047,"台北市","大安區","台北市大安區仁愛路四段345巷4弄45號"
"7931b2ae-6539-4d81-80ed-fcea5b1ff3a5","B0042","熱海大飯店車位(前門)",12,1,"supernode",NULL,25.136766,121.509285,"台北市","北投區","台北市北投區光明路258號"
"7938ca01-d3d9-4cda-8c5f-d0eec8f98d6b","E0105","捷運忠孝新生五號出口鄰近車位",1,1,"lock",NULL,25.040560286355152,121.5326578935498,"台北市","中正區","台北市中正區新生南路一段62號"
"797b1037-0746-421a-b2d7-03c2165c1208","G0137","USPACE-A7善捷停車場",45,1,"recognition",NULL,25.04975980410899,121.38211066358963,"桃園市","龜山區","桃園市龜山區文化一路88-1號"
"797ffec5-948f-4e60-beb8-608afd96c57a","C0372","中國醫藥學院五順街車位",5,0,"lock",NULL,24.15402345151,120.68207768426,"台中市","北區","台中市北區五順街122號"
"79ef0fcf-ddc5-4f36-a704-b82c57946f19","F0048","三寶大樓地下停車位",31,1,"luckypa","microprogram",25.060254447113,121.53616373213,"台北市","中山區","台北市中山區建國北路二段196號"
"7a1661ad-d3db-4f42-9863-6329f997b842","E0149","新北產業園區車位(柵欄外)",3,1,"lock",NULL,25.062239,121.456387,"新北市","新莊區","新北市新莊區福慧路和新知六路交叉口旁"
"7a2d40c1-7300-46fc-94ec-7fc5440adf4a","C0104","綠灣大樓鄰近車位",1,0,"lock",NULL,24.122565,120.657575,"台中市","南區","台中市南區復興路二段71巷65弄"
"7add3114-4ed3-4738-b22d-f0f51d8c04bf","B0091","延吉街車位(有棚涼快)",7,1,"supernode",NULL,25.039019,121.554078,"台北市","大安區","台北市大安區仁愛路四段345巷15弄2號"
"7b3074a0-9efd-4df8-ab16-1971f2c5d01c","D0276","德安公園鄰近車位",3,1,"lock",NULL,25.0348455,121.5473886,"台北市","大安區","台北市大安區四維路66巷8號"
"7b987a16-1156-4b76-8a6f-47ca626bf6f5","D0329","南京雙星車位",10,1,"supernode",NULL,25.052134,121.558559,"台北市","松山區","台北市松山區南京東路五段49號"
"7be79b08-8dc3-4c52-8e9a-530e745d3104","F0008","基隆大華一路61巷月租場",0,1,"lock",NULL,25.101708110972,121.71592123179,"基隆市","七堵區","基隆市七堵區大華一路61巷13號"
"7bf7d092-9989-4654-802f-740ba1f6d447","C0254","臺北花木批發市場鄰近月租車位",0,1,"aiguard",NULL,25.004677,121.540983,"台北市","文山區","台北市文山區萬盛街130巷18-2號"
"7bfd0389-69ef-4148-a27f-2bd9ef686d76","A0300","永吉路30巷鄰近車位",1,1,"lock",NULL,25.041547,121.567956,"台北市","信義區","台北市信義區忠孝東路五段71巷3弄16號"
"7c4f0e8c-42d9-4e78-bc30-1983269566c4","D0476","竹北哈洛德地下車位",10,1,"supernode",NULL,24.8074444,121.0358765,"新竹縣","竹北市","新竹縣竹北市文興路二段101號"
"7cecf68b-bf99-41c6-9701-584c45cea3b2","C0055","永吉路金三角車位(原正饒河)",5,1,"lock",NULL,25.045977,121.571587,"台北市","信義區","台北市信義區永吉路175巷8-2號"
"7d274870-d67a-49d3-a92f-4b3e057d68e7","D0419","USPACE台北喜來登大飯店地下駐車場",113,1,"luckypa","parkinsys",25.044268861804,121.52283456815,"台北市","中正區","台北市中正區忠孝東路一段12號"
"7d681df6-3c40-47ee-9572-31734df1a2f4","D0470","六張犁崇德街鄰近精華車位",3,1,"lock",NULL,25.023961,121.557029,"台北市","信義區","台北市信義區崇德街157巷16號"
"7df0150e-0ed6-49af-b90d-48741c0d21c0","B0039","保儀路車位",1,1,"supernode",NULL,24.9831773,121.5657444,"台北市","文山區","台北市文山區文山區保儀路152號"
"7e180226-0f2d-40a1-9c48-9f8faa0f1466","C0144","紘緯綠園道車位",3,1,"lock",NULL,24.1375729,120.6644655,"台中市","西區","台中市西區五權路1-42巷20號對面停車場"
"7e1d5350-6765-400d-b8a4-f6da720b468a","G0114","趴停土城永寧捷運停車場",15,1,"subway","",24.962533564605774,121.43630628744552,"新北市","土城區","新北市土城區承天路4巷2-18號"
"7e2d3568-1bb0-4e2d-bedb-f80ca59af24b","E0018","師大夜市鄰近露天車位",1,1,"lock",NULL,25.0220386,121.5300406,"台北市","大安區","台北市大安區泰順街60巷18弄11號"
"7e3836ff-9537-4e8e-bc6f-c5e5de338333","D0486","內湖站精華車位",2,1,"lock",NULL,25.0817187,121.5930352,"台北市","內湖區","台北市內湖區成功路四段61巷8弄3號"
"7e708b3a-f8ae-4a82-a53d-7c7e0eea727d","E0167","臨時車位",1,1,"lock",NULL,0,0,"台中市",NULL,NULL
"7ebdd53f-f857-4394-bad7-ce04584caf9a","G0129","梧棲文雅街停車位",19,1,"subway",NULL,24.242558,120.55009,"台中市","梧棲區","台中市梧棲區文雅街3號對面"
"7ee1b5aa-f7a1-4828-bc0a-dad889dcf1fa","B0035","仁愛國小鄰近車位",1,1,"lock",NULL,25.034648,121.551138,"台北市","大安區","台北市大安區安和路一段90巷20號"
"7f42bd7a-9ded-4910-a08b-09c57305c885","F0195","虛擬車位",0,0,"all",NULL,25.0577125,121.5430245,"台北市","中山區","台北市中山區民生東路三段"
"7f4bbbcc-ede5-47bf-9c59-5c302b0ab0ca","C0284","太平伊甸園車位",0,1,"lock",NULL,24.150236650072,120.72625341169,"台中市","太平區","台中市太平區中山路二段412-1號"
"8033feea-3dc4-4da1-9a79-cc48287ea6bf","B0010","秀峰高中場",7,1,"subway",NULL,25.0656316,121.6618973,"新北市","汐止區","新北市汐止區福安街8號"
"80388a0e-dd38-4b32-be8e-5e35d368e10d","D0541","C10世正經貿大樓",181,1,"luckypa","parkinsys",25.057195,121.6161399,"台北市","南港區","台北市南港區經貿二路66號B2~B5"
"805225d7-e6a9-42cd-b0f3-95d88663bbd7","F0313","竹北成功三路車位",2,1,"lock",NULL,24.8185824,121.0251212,"新竹縣","竹北市","新竹縣竹北市成功三路136號"
"80602dda-1c6c-44ec-ac4c-3ff846c2f05d","F0068","天母市集鄰近車位",2,0,"lock",NULL,25.120119891539,121.52926389285,"台北市","士林區","台北市士林區天玉街38巷13號"
"809aefb6-1175-4063-9ff5-acda7148676a","C0019","光復南路美廉社車位",3,1,"lock",NULL,25.035183,121.558537,"台北市","信義區","台北市信義區基隆路一段364巷24號"
"810c7ac8-ba2d-49da-a06d-978839e48383","F0142","洛陽路125巷",9,1,"subway",NULL,24.1685027,120.6509467,"台中市","西屯區","台中市西屯區洛陽路125巷31號"
"8200adb0-53b5-4cf3-abec-198c0d6d29df","B0266","合江街130巷車位",1,0,"lock",NULL,25.059437,121.537798,"台北市","中山區","台北市中山區建國北路二段115號"
"82572a99-7dcd-461f-8dbd-2dbc72d92a36","C0325","松竹路共享車位(東巨公司)",3,0,"supernode",NULL,24.182162,120.699059,"台中市","北屯區","台中市北屯區松竹路二段67巷29號"
"832dac0e-db6f-43f1-9d68-8ee179138da9","E0269","大雅中清東路118巷車位",2,1,"lock",NULL,24.2222091,120.6489071,"台中市","大雅里","台中市大雅里中清東路118巷"
"83401b3a-a83e-4c64-8cd3-15f3cdc5544b","E0117","瀋陽路三段停車場共享車位",1,1,"lock",NULL,24.1722829,120.6948566,NULL,"台中市北屯區",NULL
"838747a8-7903-4a90-a504-6b7e7cd3aca0","E0104","USPACE新莊溼地公園/昌平街聯合停車場",174,1,"luckypa","microprogram",25.057872,121.454431,"新北市","新莊區","新北市新莊區富貴路"
"839eab61-4964-4ba7-9039-1c3cacb62ebf","B0087","民族東路鄰近車位",2,1,"lock",NULL,25.062228,121.5495721,"台北市","松山區","台北市松山區民族東路757號"
"848cbfd9-891f-4c55-96fa-7948d9435b43","D0481","伯爵山莊車位(社區前巷底)",2,1,"lock",NULL,25.076105,121.642445,"新北市","汐止區","新北市汐止區翠峰街23號"
"85204823-c920-4434-a942-aa7ade806043","A0158","鳳凰大廈後門車位",5,1,"lock",NULL,25.042225,121.548128,"台北市","大安區","台北市大安區忠孝東路四段101巷7號"
"8527400c-239f-4e4a-ad42-191e7b38a7b7","E0081","三創生活園區鄰近車位",1,1,"lock",NULL,25.0464406,121.5305285,"台北市","中山區","台北市中山區新生北路一段62巷19號"
"860a5dc0-dab9-4a99-a441-ba75db017592","C0347","初生 生 旗艦店",1,1,"lock",NULL,25.038653,121.55173,"台北市","大安區","台北市大安區安和路一段49巷9號旁"
"862208ff-a599-4bee-976a-dca762fdae15","A0160","CONVERSE前車位",4,1,"lock",NULL,25.043028,121.549626,"台北市","大安區","台北市大安區敦化南路一段177巷9號"
"863e11f0-8343-4889-a13d-e0fd3c154293","C0274","文化路一段精華車位",3,1,"lock",NULL,25.019091,121.466642,"新北市","板橋區","新北市板橋區文化路一段188巷36號"
"867f68dd-cf6e-49db-abfc-2e66da7aca1e","A0161","永安市場鄰近車位(中和路)",1,1,"lock",NULL,25.001114,121.508724,"新北市","永和區","新北市永和區中和路421巷12號"
"87010ced-60ab-449a-9e34-965ff8198256","D0119","Ocean city 海洋都心",218,1,"luckypa","microprogram",25.196952,121.438899,"新北市","淡水區","新北市淡水區義山路二段291號"
"87246616-65cc-4698-a9a8-6ce6eaf6bf5a","G0048","良茂詠悦停車位",10,0,"supernode",NULL,25.0836749,121.5210872,"台北市","士林區","台北市士林區劍潭路57號"
"87ffd505-5072-4615-8834-ebd29b9b8e12","D0408","三重果菜市場鄰近車位",0,1,"lock",NULL,25.06440024827,121.48577822705,"新北市","三重區","新北市三重區重陽路二段52巷30號"
"8812b548-3c20-4763-8fa7-0eae8aa5fd1e","E0214","USPACE安盛好樂停中央停車場",542,1,"luckypa","cityparking",23.99457,121.59356,"花蓮縣","花蓮市","花蓮縣花蓮市中央路三段844號"
"8869cb90-0b16-4525-a8b3-bebcdd658f59","C0181","芝山站鄰近車位",11,1,"lock",NULL,25.1013538,121.5239384,"台北市","士林區","台北市士林區中山北路五段829巷40號"
"88bf0898-5268-4a4e-b21b-b51d4144861e","D0022","USPACE總部",1,0,"aiguard",NULL,3.202778,73.22068,NULL,NULL,NULL
"88c1f43b-4c2b-4313-87fa-8e632e3cc346","B0089","五常國中鄰近車位",11,1,"lock",NULL,25.064775,121.543755,"台北市","中山區","台北市中山區復興北路488巷2弄"
"893114c8-d7c3-4add-8c0b-4dae11ecab08","G0027","世紀大樓1F平面車位",1,1,"lock",NULL,25.063785,121.527251,"台北市","中山區","台北市中山區新生北路三段26號"
"89839bf0-7e3a-47e2-8ba1-3e4617b20b30","B0083","新莊思源路370巷車位(柵欄外)",0,1,"supernode",NULL,25.051673,121.461187,"新北市","新莊區","新北市新莊區思源路370巷"
"89d6859b-437e-4b92-8a2b-59cc9f87e300","E0292","大樹藥局南屯向上店",4,0,"lock",NULL,24.146706384832,120.64859340058,"台中市","南屯區","台中市南屯區向上路一段643號"
"89e80046-36df-4909-9275-c722beb156ee","E0015","(暫時拆除)",1,0,"lock",NULL,24.1539593,120.6594672,"台中市","西區","台中市西區華美街424號"
"8a11da82-5cac-40c7-9ade-485d64367c2f","E0079","涵碧園B1月租車位",0,1,"subway",NULL,25.0793163,121.5887722,"台北市","內湖區","台北市內湖區文德路269號"
"8ab92d65-5cdf-44d0-8ae3-2f575cf9ec2c","F0350","後勁捷運站鄰近車位",13,1,"lock",NULL,22.723461,120.318271,"高雄市","楠梓區","高雄市楠梓區加昌路"
"8c000e68-b5ed-4d24-8c37-8e7a0d1da22e","D0550","立飛組合屋",0,1,"lock",NULL,24.2479333,120.6911454,"台中市","神岡區","台中市神岡區中山路303號"
"8cf9d35b-cde5-43a8-9b8c-b74e0fe05243","F0003","永和耕莘醫院停車場(車梯地下車位)",5,1,"elevator",NULL,25.010995621795,121.51707150674,"新北市","永和區","新北市永和區國光路123號"
"8da7bb6a-2fa5-4771-9cb3-180f7c37f5b7","F0171","將捷之森地下停車場",330,0,"luckypa","microprogram",25.182701,121.449655,"新北市","淡水區","新北市淡水區淡金路二段173號"
"8da8e1e0-bf51-49ef-bf18-e3a93b1dcc2b","E0323","基隆路一段380巷鄰近車位",2,1,"supernode",NULL,25.034603,121.559581,"台北市","信義區","台北市信義區基隆路一段380巷14號"
"8ddc6325-4ea4-48a9-974c-c99b33d44745","E0078","敦南錢櫃後方車位",13,1,"supernode",NULL,25.04212,121.54996,"台北市","大安區","台北市大安區忠孝東路四段181巷10弄"
"8ea18225-bfe1-4673-afe5-d376ce85f534","G0044","濟南路二段鄰近車位",1,1,"lock",NULL,25.04017962956692,121.53160840314443,"台北市","中正區","台北市中正區濟南路二段"
"8eb79ce7-514c-4437-a9e8-f0de1e2b054c","D0060","黎明客美多旁停車位",7,1,"lock",NULL,24.17764802056,120.63726794407,"台中市","西屯區","台中市西屯區黎明路三段257號"
"8eed4acc-aef3-4c73-a9f5-5d021a8c1f10","D0535","宏泰A19購物中心",130,1,"luckypa","cityparking",25.035326723077,121.56759381286,"台北市","信義區","台北市信義區松壽路22號"
"8f22d80a-659c-4b14-adb5-a003a44b8be9","B0250","復盛公園鄰近車位",1,1,"lock",NULL,25.047423,121.55958,"台北市","松山區","台北市松山區光復南路17巷40號"
"9025935e-819a-4e0f-8aa9-628ff1a9aaef","B0204","金龍路車位",4,1,"lock",NULL,25.088064,121.585976,"台北市","內湖區","台北市內湖區金龍路222巷8號"
"902a2628-bdfa-4d0a-b64d-eefc8e749c7e","C0345","濱海休憩園區",75,1,"luckypa","microprogram",25.136653080082,121.80205190926,"基隆市","中正區","基隆市中正區長潭段513、513-2、513-4地號"
"903b4e31-138a-4901-a78c-35d6a0511740","D0495","飛訊烘焙店面車位",2,1,"lock",NULL,25.0915611,121.5188028,"台北市","士林區","台北市士林區承德路四段277巷83號"
"9057120d-82bf-4256-ace9-a080426a7b06","B0137","溫州公園車位",1,1,"lock",NULL,25.02041,121.531357,"台北市","大安區","台北市大安區羅斯福路三段269巷49號"
"90a69e0c-2506-4d81-92c4-3c8cdd333464","G0144","特爾電力-高雄中正旗艦站",4,0,"lock",NULL,22.6302449,120.326884,"高雄市","苓雅區","高雄市苓雅區建民路245號"
"90e8cf34-8793-42c0-9fc3-7dacffccbd32","D0410","內湖成功月租車位",0,1,"all",NULL,25.0669201,121.590051,"台北市","內湖區","台北市內湖區成功路二段312巷6號"
"90fe9d8d-aeff-4f6f-802c-a25433c4d41f","C0002","星展銀行前車位",1,0,"lock",NULL,24.072766,120.53862,"彰化縣","彰化市","彰化縣彰化市曉陽路150號"
"9136db11-352c-4c55-856f-3e37569feedc","E0057","中和景安停車場",3,1,"subway",NULL,24.993127,121.504138,"新北市","中和區","新北市中和區景平路229巷371號"
"91e2cce6-b2f4-4d95-986c-9e1fec24c13e","C0316","新北市政府行政大樓B3停車場(新府路)",40,1,"luckypa",NULL,25.0121859,121.4644753,"新北市","板橋區","新北市板橋區新府路1號對面"
"92198e79-1a71-4774-b42e-115e86b4c613","A0275","樟宜機場預約車位",1,0,"lock",NULL,1.363551,103.988441,"新加坡","新加坡","新加坡新加坡新加坡"
"92214729-4422-41b1-85d7-530a79af4716","B0242","國父紀念館車位(光復南路419巷)",1,0,"lock",NULL,25.03653,121.558856,"台北市","信義區","台北市信義區光復南路419巷51號"
"92318912-6396-4420-9a85-23d20fb822aa","C0242","GOGO HOTEL市政館(周六不開放)",19,0,"subway",NULL,24.16100309117,120.65540637098,"台中市","西屯區","台中市西屯區四川路111號"
"9304fcd7-5f27-4633-8dc2-f3593a038276","C0221","復興萬象三階場",16,1,"supernode",NULL,25.043560859689,121.5429387887,"台北市","大安區","台北市大安區復興南路一段122巷2號3樓"
"93261483-c05b-4085-b434-fbb7e00ebaee","G0031","福科路停車場",20,1,"subway",NULL,24.186756,120.613074,"台中市","西屯區","台中市西屯區福科路595號"
"932a547e-2976-41f9-b595-b571d40af214","F0161","新店安忠路巷弄月租A場",19,1,"subway",NULL,24.958390323670315,121.51259520468199,"新北市","新店區","新北市新店區安忠路57巷26弄25號旁"
"93ced52f-f812-43f2-878b-029f02ecd937","D0158","ILLUME茹曦酒店",248,1,"luckypa","parkinsys",25.0526507,121.5482621,"台北市","松山區","台北市松山區敦化北路100號"
"93f9c1a6-bb12-43c6-a0a7-6189c26e5a9d","B0208","京站廣場鄰近車位",1,1,"lock",NULL,25.049874,121.518911,"台北市","大同區","台北市大同區長安西路78巷4弄2-1號"
"9492b8a4-7bd3-42cc-a5f5-9fb07e062cea","E0289","敦化北路165巷車位",1,1,"lock",NULL,25.054798,121.550824,"台北市","松山區","台北市松山區敦化北路165巷15號"
"952c5de7-4045-4e28-aa49-9912933e7c28","C0085","月月公寓市府車位",6,1,"supernode",NULL,25.0419235,121.5671529,"台北市","信義區","台北市信義區忠孝東路五段71巷12弄2號"
"95a999c5-1734-4020-ba9e-540f0e43f7aa","C0149","嵜本吐司鄰近車位",7,1,"lock",NULL,25.0420867,121.5656826,"台北市","信義區","台北市信義區忠孝東路五段15巷155號"
"95bda34c-a26b-4a12-9722-115196d7c9b4","E0106","新店二十張精華車位",3,1,"lock",NULL,24.982063,121.538498,"新北市","新店區","新北市新店區二十張路16巷2號"
"96b8c06e-ba0f-4b31-a5ba-6b3f5aa6adf6","F0314","芙蓉大樓1F平面車位",14,1,"lock",NULL,25.0374263,121.5415053,"台北市","大安區","台北市大安區仁愛路三段136號"
"971789d3-8419-46a6-a402-a19cf2ca7ad9","B0025","未知 (請勿預約)",1,0,"subway",NULL,25.052773,121.55243,"台北市","未知","台北市未知未知"
"97536cc9-9311-4532-8897-704b1d2b4862","A0299","歐特儀基隆站",2,0,"supernode",NULL,25.130892,121.746318,"基隆市","中正區","基隆市中正區信二路299號"
"97bf7267-8159-45c8-8e6b-e1ad014fbc34","D0467","振宇五金中崙三柵欄外車位",2,1,"supernode",NULL,25.046508207375,121.53987107021,"台北市","中山區","台北市中山區八德路二段218號"
"97e06ea3-c1e5-42fc-8671-0411e5ad3dc9","C0214","內湖獅子王桌球車位",2,1,"lock",NULL,25.07115621927,121.60987677586,"台北市","內湖區","台北市內湖區康寧路三段54-9號"
"985229e6-c885-44db-ac16-7e7e1849a972","A0171","光復南路240巷車位(原紅蟹)",2,1,"supernode",NULL,25.040814,121.555254,"台北市","大安區","台北市大安區光復南路240巷54號"
"98a00ff2-bb1a-4239-85c8-fe9f3513d44d","E0110","黎明全聯後方停車場(蘭那泰式餐廳P)",30,0,"subway",NULL,24.1622485,120.6342836,"台中市","西屯區","台中市西屯區黎明路二段860巷"
"9947c06b-0229-404d-944a-c7945faf3e81","D0478","伯爵山莊車位(網球場前)",6,1,"lock",NULL,25.076509,121.642463,"新北市","汐止區","新北市汐止區翠峰街25-1號"
"9999ede9-1369-4a4f-aefb-2c1cf8d17428","F0349","台北君悦酒店-充電站",5,0,"luckypa",NULL,25.03523561716433,121.56285693788033,"台北市","信義區","台北市信義區松壽路2號"
"9a219498-97b0-455a-9eb4-3c253a2cc5bd","F0336","USPACE三重極限停車場",220,1,"luckypa","telexper",25.0886997,121.4862488,"新北市","三重區","新北市三重區五華街282號"
"9a653003-61a7-4be1-a78e-0c0647715664","F0230","台灣科技總部二期",3,1,"lock",NULL,24.974101,121.548672,"新北市","新店區","新北市新店區中興路二段196號"
"9a8cf96a-bab9-4ac9-9977-d8ae4d31cb2d","G0039","環球世貿大樓月租車位",32,0,"luckypa","parkinsys",25.0283798,121.5711162,"台北市","信義區","台北市信義區信義路五段150巷6號"
"9ae9e446-6567-40f4-95ac-e2fd49c412a0","D0180","新店中正路地下B1車位",2,1,"lock",NULL,24.97477927396284,121.53863436503173,"新北市","新店區","新北市新店區中正路284巷4弄5號"
"9b35b581-77af-4007-ac57-030a54b77657","E0082","C10世正經貿大樓(B2汽車臨停區)",42,1,"luckypa","parkinsys",25.057195,121.6161399,"台北市","南港區","台北市南港區經貿二路66號B2"
"9ba02663-594e-4871-9aa3-ae4ef66012c6","E0293","大樹藥局北屯松竹店",5,0,"lock",NULL,24.181938935238723,120.68953137239156,"台中市","松和里","台中市松和里松竹路二段411號"
"9bd0749b-0015-4957-bb9e-20bf6fac98b7","G0059","USPACE西門峨嵋站-B3汽車停車場",22,1,"recognition",NULL,25.044387473949,121.50645586341,"台北市","萬華區","台北市萬華區西寧南路123號"
"9be1a1eb-f8c4-4892-8b0e-094c9d58e28c","D0242","通化街倉儲式月租車位",0,1,"elevator",NULL,25.028337507586,121.55189701416,"台北市","大安區","台北市大安區樂利路11巷18號"
"9bf8fcd2-d4ea-44f6-a5db-64a153169c1a","D0114","新北市政府柵欄機採購",1,0,"subway",NULL,25.0122436,121.4653462,"新北市","板橋區","新北市板橋區中山路一段161號"
"9c71ef3b-18b7-4df1-9ffd-d06c5cf9b2e9","F0153","東海新興路停車位",1,1,"lock",NULL,24.1799104,120.5917257,"台中市","龍井區","台中市龍井區新興路3巷24號"
"9d38e87a-459d-4526-abcc-9e81b56bba87","F0262","桃園市平鎮國民運動中心B1充電站",100,0,"all",NULL,24.9134993,121.2094153,"桃園市","平鎮區","桃園市平鎮區中庸路18號"
"9d79e717-c2eb-432c-9977-2ed22bd8435f","B0215","USPACE",3,0,"lock",NULL,25.0548748,121.61464,"台北市","南港區","台北市南港區南港路一段32號南港展覽館"
"9dc1562d-5ca7-4737-babe-f72d0b2e256d","E0255","師大功德站(40巷)",0,1,"lock",NULL,25.02438999700158,121.53061797734505,"台北市","大安區","台北市大安區泰順街40巷9號"
"9e2f56a3-4f66-4eba-bc62-c4c8673927d9","G0019","USPACE和山停車場",58,1,"luckypa","microprogram",25.0021319,121.4947404,"新北市","中和區","新北市中和區中山路二段311號"
"9f182cb7-dd68-4072-8d19-89386d3354bc","F0315","八里龍米地下車位(媽媽嘴母港店旁)",0,1,"aiguard",NULL,25.142757,121.447556,"新北市","八里區","新北市八里區龍米路二段86號"
"9f209e57-49fc-440f-96e6-47cfd16eda48","G0145","USPACE迪卡儂中和店停車場",136,0,"luckypa","telexper",25.003668476762854,121.49918964921906,"新北市","中和區","新北市中和區中山路二段"
"9f54eb4a-146a-4602-b0dc-d9eb1dd8634e","B0258","林森錦州鄰近車位",5,1,"lock",NULL,25.060639,121.525126,"台北市","中山區","台北市中山區錦州街23巷4號"
"9f62204f-5265-4cea-8535-992f893d1939","E0161","新生南路車位",2,1,"lock",NULL,25.024966352195065,121.53442207208857,"台北市","大安區","台北市大安區新生南路三段10巷1號"
"9f8f1678-a2e4-49d9-9fc9-319a5cf0f459","C0051","南投戲院",2,1,"supernode",NULL,23.907981,120.687495,"南投縣","南投市","南投縣南投市龍井街47號"
"a0343390-f90c-45d3-a425-393c640070c6","B0163","社子國小鄰近車位",1,1,"lock",NULL,25.091405,121.503275,"台北市","士林區","台北市士林區延平北路六段258巷70號"
"a06e8ce8-01c3-4547-85fb-f7c9ec804afb","D0273","USPACE 正大竹圍後棟(第二道柵欄)",99,0,"luckypa",NULL,25.141691,121.461923,"新北市","淡水區","新北市淡水區民權路27號"
"a0c12f8e-7bd6-4b9e-b33c-aab529d89f44","F0013","板橋忠孝國中精華車位",1,1,"lock",NULL,25.0045421,121.4627198,"新北市","板橋區","新北市板橋區重慶路139巷6號"
"a0eda4ff-cac2-4282-b176-b462da838f3d","E0118","萬大路巷內車位",0,1,"lock",NULL,25.024553,121.499114,"台北市","萬華區","台北市萬華區萬大路322巷39號"
"a11c0919-63e5-4ea4-9947-a1dca026a797","F0077","USPACE中崙旗艦場",49,1,"luckypa","microprogram",25.046653,121.540125,"台北市","中山區","台北市中山區八德路二段230號"
"a153a813-e75c-408e-b167-8fdcf803a190","E0136","公館戶外車位",2,1,"lock",NULL,25.01365,121.533406,"台北市","中正區","台北市中正區汀州路三段104巷11號"
"a16d8da9-d501-458f-8c17-bbb02372b774","A0245","監理站鄰近車位",2,1,"lock",NULL,25.0475518,121.5583205,"台北市","松山區","台北市松山區光復南路13巷4-4號"
"a17dda8b-3300-4236-9ebb-ef9cd1d22c00","D0274","碧潭好風景停車場(帝景飯店)",26,1,"recognition",NULL,24.957539579756,121.53448864639,"新北市","新店區","新北市新店區碧潭路77巷2號"
"a1e8ca8e-5c42-4c85-99d2-d247963b6b34","A0176","敦化北路238巷車位",4,1,"supernode",NULL,25.0601655,121.5485831,"台北市","松山區","台北市松山區敦化北路238巷12號"
"a1f1126c-533d-4528-8aad-0070cd6668bb","D0254","林森仁愛路鄰近車位",1,1,"lock",NULL,25.040028521320675,121.52383601847103,"台北市","中正區","台北市中正區杭州南路一段14巷24號"
"a23823e1-878b-40b1-831f-91c27a793620","E0090","上格大飯店車梯車位",0,1,"elevator",NULL,25.051858497412,121.48876160789,"新北市","三重區","新北市三重區集成路11號"
"a254057d-8092-4228-a053-8430ac69b439","E0116","手續費扣款",1,0,"lock",NULL,20.69726,117.735491,"馬爾地夫","東沙群島","馬爾地夫東沙群島海岸邊"
"a2774c85-df32-4b91-805e-b5ba9f5818df","F0078","大巨蛋鄰近車位（光復南路33巷）",14,1,"supernode",NULL,25.046659908400148,121.55808462289069,"台北市","松山區","台北市松山區光復南路35號"
"a312e204-2d63-4fb7-925b-fcc65a7f943a","A0177","高島屋鄰近車位",1,1,"lock",NULL,25.1096807,121.5271229,"台北市","士林區","台北市士林區中山北路六段290巷23弄7號"
"a333aaa0-0fb8-48f3-a8bd-e1ef759c54d7","B0124","永安零售市場車位",1,1,"lock",NULL,25.0054218,121.5149462,"新北市","永和區","新北市永和區安樂路304巷22號對面"
"a3e96de5-0cea-413b-955a-1e2dad1987e8","B0303","南雅夜市鄰近車位",3,1,"aiguard",NULL,25.008326,121.454591,"新北市","板橋區","新北市板橋區館前西路213巷6號"
"a3f3d73a-1e50-435b-b5d9-d004b990659c","F0021","榔頭模型生存遊戲前方車位",1,1,"lock",NULL,25.0835429,121.5220154,"台北市","士林區","台北市士林區劍潭路50號"
"a467a79b-6937-4b94-bd9f-009fa87c260b","F0243","光正街車位",5,1,"lock",NULL,25.0169256,121.4616888,"新北市","板橋區","新北市板橋區光正街45巷18號"
"a53ba89d-ea62-4750-b88c-4a5f0819c0b8","D0553","仲信大湖商旅",4,1,"supernode",NULL,25.084375,121.599739,"台北市","內湖區","台北市內湖區成功路四段353號"
"a5a392db-0d5f-4530-839e-c70f1434c61a","D0007","Sogo佳醫美人車位",3,1,"lock",NULL,24.155706,120.661304,"台中市","西區","台中市西區華美街498巷8號"
"a6791911-27f4-4e83-8e41-4a229d6fe5f3","F0118","啄木鳥八德店車位",5,1,"lock",NULL,25.0492151,121.5638292,"台北市","松山區","台北市松山區八德路四段207巷3號"
"a718a21f-c84c-4839-8454-4289c6cc7adf","E0197","棒棒積木飯店",0,1,"lock",NULL,23.4686957227074,120.29382821187394,"嘉義縣","太保市","嘉義縣太保市太子大道223號"
"a7546f1a-afb5-4326-bbc7-72762571e6ef","F0295","宏達僑中二場",4,0,"subway",NULL,25.0108465,121.4445915,"新北市","板橋區","新北市板橋區大觀路一段38巷200弄9之11號"
"a7576f1f-57da-437b-a040-703821d424aa","F0351","唐采文具五權西路車位",8,1,"lock",NULL,24.139955,120.64791,"台中市","南屯區","台中市南屯區五權西路二段245號"
"a79930a3-9373-497e-826a-7191d444d069","B0098","太平洋商業大樓(原延吉街合庫)",11,1,"supernode",NULL,25.0419048,121.5539112,"台北市","大安區","台北市大安區忠孝東路四段235-1號"
"a7b43ee3-4d3b-44fd-9d59-333dd628df90","D0073","瑞光路227號月租車位",0,1,"lock",NULL,25.0743885,121.5785048,"台北市","內湖區","台北市內湖區瑞光路227號"
"a87aab54-a0a7-430c-a5d1-c9da5981fb72","E0006","金龍湖畔月租場",0,1,"all",NULL,25.07191,121.6302,"新北市","汐止區","新北市汐止區湖前街123號"
"a953fe37-e834-445d-9169-3048ff4648a0","D0380","台北橋下鄰近車位",0,1,"lock",NULL,25.0636968,121.5088989,"台北市","大同區","台北市大同區環河北路二段5號"
"a99b71b8-efbf-4f46-9810-cdb5d59fb14c","E0241","(暫緩)頂好名店城二場(忠孝東路四段101巷)",4,0,"lock",NULL,25.041986,121.548074,"台北市","大安區","台北市大安區忠孝東路四段101巷7號"
"a9b1e8b4-dc15-4c5d-892b-17137151d343","F0182","台南公園路",10,0,"lock",NULL,23.0081028,120.2100984,"台南市","北區","台南市北區公園路670號"
"a9cd494f-e3bd-44b2-8c60-41fed66047a1","B0002","明德國小鄰近車位",1,1,"lock",NULL,25.1121303,121.5232569,"台北市","北投區","台北市北投區榮華一路6巷14號"
"aa03558e-d07f-4315-9adf-e41544b765c3","F0326","延平民生車位",5,1,"lock",NULL,25.057646,121.512271,"台北市","大同區","台北市大同區延平北路二段135巷19號"
"aa392dd2-decc-43ff-8233-ca5d39d1722e","B0033","市政府轉運大廈車位(加油站旁)",13,1,"supernode",NULL,25.04159,121.566856,"台北市","信義區","台北市信義區忠孝東路五段31巷18弄17號"
"aa5bab71-7ef7-4595-95c2-befef0b715c9","A0047","江南街車位",1,1,"lock",NULL,25.074789,121.57931,"台北市","內湖區","台北市內湖區江南街71巷93弄7號"
"ab1c63d0-8c86-4b18-b7fa-3dc8f26d6f0c","F0173","USPACE長春路龍江路臨時平面停車場",38,1,"luckypa","microprogram",25.05475,121.540086,"台北市","中山區","台北市中山區長春路253號"
"ab1cbe47-dfc2-4f5f-b916-d500bdb6972e","E0130","USPACE電信大樓停車場",105,1,"luckypa","cityparking",25.02627592178,121.55451399307,"台北市","大安區","台北市大安區基隆路二段172-1號"
"ab21402e-493a-435a-810f-76a7660817ef","D0033","林家花園鄰近車位",1,1,"lock",NULL,25.011932,121.4555268,"新北市","板橋區","新北市板橋區中正路1巷6號"
"ab31db37-7023-4ab7-b384-c68275320675","F0330","永固便利-內湖momo站",100,0,"luckypa",NULL,25.0796627,121.5710236,"台北市","內湖區","台北市內湖區洲子街90號"
"abd8935c-3fa4-4bd9-9015-c6f0e97ec4a9","G0150","忠孝公園精華車位",1,0,"lock",NULL,25.042108288833358,121.53162931748379,"台北市","中正區","台北市中正區忠孝東路二段130號"
"abe93342-4bfc-4ac7-841a-7c0a706129fa","B0143","新莊四維公園",12,1,"subway",NULL,25.02134,121.421118,"新北市","新莊區","新北市新莊區四維路186巷"
"ac6aacdd-6f01-453f-9947-8a901cb190ce","F0346","台南華人德州撲克競技協會停車場",20,1,"lock",NULL,23.017741,120.225718,"台南市","永康區","台南市永康區大橋一街"
"ad111d3c-fbeb-4e62-95d0-6137dce81ab8","F0174","USPACE正氣橋下平面停車場",68,1,"luckypa","microprogram",25.047296,121.568019,"台北市","信義區","台北市信義區基隆路一段51號"
"ad449f65-03cf-4b1d-b7b9-72b2bec8f633","A0277","西松國小車位",8,1,"supernode",NULL,25.053393,121.5637123,"台北市","松山區","台北市松山區三民路5號"
"ad60faef-9ac2-4d4c-9803-23e4abce952d","F0265","大湖駕訓班鄰近車位",4,1,"lock",NULL,25.078812490096585,121.59406659705068,"台北市","內湖區","台北市內湖區康寧路一段156巷10號"
"ad8e2ee0-1c8d-4658-ad53-72763baa9ca1","E0007","敦南勵志停車場",35,0,"luckypa","microprogram",25.047309321918,121.55127104488,"台北市","松山區","台北市松山區八德路三段12巷7弄25號"
"adcf2ce9-c483-4e01-aea9-cea9092f3861","F0231","通化街精華車位",2,1,"lock",NULL,25.027491977747648,121.55442145735596,"台北市","大安區","台北市大安區通化街175巷19號"
"ae07db66-2010-49c7-b8b4-afcfc2842701","C0140","USPACE板橋旗艦場",142,1,"luckypa","parkinsys",25.014121,121.470171,"新北市","板橋區","新北市板橋區中山路一段279號"
"ae2208a0-8e60-43a8-8e2b-8b4ada2a0e67","E0222","八里碼頭天后車位",1,1,"lock",NULL,25.157824519709,121.43392608197,"新北市","八里區","新北市八里區龍米路二段201巷272號"
"ae4a4589-8b4f-48f2-b458-d021daa69525","G0023","テストくん",1,0,"web_lock",NULL,35.6875937,139.7216131,"Tokyo","東京都","Tokyo東京都新宿区四谷３丁目４−４"
"ae6a222e-525e-4807-a2a4-0cb004b8583e","D0304","濟南路三段鄰近車位",1,1,"lock",NULL,25.040633,121.535721,"台北市","大安區","台北市大安區新生南路一段103巷35號"
"ae8052d6-d645-4c4d-af46-4dcaf1061e0b","C0033","台視後方鄰近車位",0,0,"lock",NULL,25.047208905359,121.5510944189,"台北市","松山區","台北市松山區八德路三段12巷7弄9號"
"aee87ecc-517a-4b3e-8752-1cb946754963","D0299","(有棚)永和豫溪街鄰近車位",1,1,"lock",NULL,25.009958,121.517862,"新北市","永和區","新北市永和區豫溪街84號"
"af260f77-0a30-4aa4-8611-1d46e2f6c1b3","E0098","敦南勵志倉庫",0,0,"aiguard",NULL,25.0472133,121.5514201,"台北市","松山區","台北市松山區八德路三段12巷7弄25號"
"af33318f-b3c6-438d-8bb2-850fdc21f630","E0274","時代通商大樓B2倉儲式月租車位",0,1,"elevator",NULL,25.040831,121.554937,"台北市","大安區","台北市大安區忠孝東路四段270號"
"b0093a0f-1ba2-4afa-9ddf-27ed89cac0cd","G0050","新光華山金融中心地下停車場",99,0,"luckypa","microprogram",25.04500858852231,121.5269891950394,"台北市","中正區","台北市中正區杭州北路審計處對面"
"b095981c-8eb4-4efe-a0ee-3bb713e3a003","G0036","永春公園停車場",23,1,"subway",NULL,25.04191159020433,121.57893287037594,"台北市","信義區","台北市信義區松山路393巷15號"
"b0a650aa-38f4-4306-b575-e0c96eac2051","C0235","原子街車位",9,1,"lock",NULL,24.146192069075,120.67397819125,"台中市","北區","台中市北區原子街57號"
"b0a9c776-ccd1-45db-8ae8-cc8d68fd7850","F0009","車麗屋仁美店",1,0,"lock",NULL,24.2014166,120.682604,"台中市","北屯區","台中市北屯區同榮里環中路一段1058號"
"b160c3e5-be8d-435e-9885-4ddd333f6f83","E0169","豐原文昌東停車位",13,1,"lock",NULL,24.2627583,120.7178303,"台中市","豐原區","台中市豐原區文昌東街30號"
"b2abde6f-f458-4827-aa5e-e7851fcf45d9","F0024","永春市場車位",0,1,"lock",NULL,25.042098,121.576902,"台北市","信義區","台北市信義區虎林街119巷4-1號"
"b33275f7-e936-485d-a53a-28421cd9c99c","D0302","Top Hair Salon蕾琦髮藝",2,1,"lock",NULL,25.0508974,121.5595364,"台北市","松山區","台北市松山區光復北路103巷34號"
"b334bb02-7a4f-44b0-9163-d5f434562f24","D0378","USPACE國家企業中心 B4月租區",0,1,"luckypa","cityparking",25.050846,121.564138,"台北市","松山區","台北市松山區南京東路五段188號B4"
"b35c1981-3225-4569-acf1-7e8fba438b02","C0089","長安東路精華車位(前門)",1,1,"lock",NULL,25.0488565598,121.52849175098,"台北市","中山區","台北市中山區新生北路一段102巷3號"
"b399ae30-608a-45b1-8eaf-9fc8fbf8c1c1","A0187","北宜路車位",4,1,"supernode",NULL,24.9537314,121.5568021,"新北市","新店區","新北市新店區北宜路二段126號"
"b3a5207d-03e4-4bcc-bb83-900c1e320c8f","A0278","信義幼兒園車位",8,1,"supernode",NULL,25.03524,121.558869,"台北市","信義區","台北市信義區基隆路一段364巷20號"
"b43201ea-238a-4e73-a3c3-b0121fbdf65f","F0263","礁溪奕順軒後方車位",5,1,"supernode",NULL,24.826059379862215,121.77221909404061,"宜蘭縣","礁溪鄉","宜蘭縣礁溪鄉湯圍街36號"
"b4a505cd-7c3c-4f13-9e3b-8e877558c7c3","C0317","市府路共享車位",3,1,"supernode",NULL,24.1397013,120.6803712,"台中市","中區","台中市中區市府路36號"
"b4b53180-89e5-4c48-9c3e-bdedb543fba7","B0229","青田街鄰近車位",2,1,"lock",NULL,25.02675,121.533109,"台北市","大安區","台北市大安區和平東路一段183巷3弄2號"
"b56ce6c8-0ab7-43ea-8e6f-f1c37dc3148a","C0076","永春捷運站鄰近車位",3,1,"lock",NULL,25.041135,121.575366,"台北市","信義區","台北市信義區忠孝東路五段423巷2號"
"b5da977e-761c-4272-b6e6-9630e36c46e1","F0028","車麗屋八德店",6,1,"supernode",NULL,24.9661379,121.3007023,"桃園市","大正里","桃園市大正里介壽路一段666號"
"b5e11992-1a7c-4a7b-8941-5754b985541e","B0285","台北體育場鄰近車位",1,1,"lock",NULL,25.046419947849,121.55358675638,"台北市","松山區","台北市松山區延吉街13號"
"b6f692f9-ad19-4251-bbcd-bf3d6a7315a8","E0074","C11世正南軟大樓(B3卸貨區)",7,0,"luckypa","parkinsys",25.0571105,121.614302,"台北市","南港區","台北市南港區三重路66號B3"
"b79a6dc6-ce93-469c-89fd-03a0023a1d66","F0025","美村勤美停車場",11,1,"subway",NULL,24.153179,120.662884,"台中市","西區","台中市西區中興街263巷口進入"
"b808aa9e-1e04-4f94-a641-069d42c8f94f","C0248","超級巨星公園店車位",11,0,"supernode",NULL,24.149548,120.677537,"台中市","北區","台中市北區公園路195號"
"b83dbb50-f292-4ba1-aca5-fe041ed7742f","F0076","中崙旗艦一場(已整合至F0077)",34,0,"luckypa","microprogram",25.046526,121.539891,"台北市","中山區","台北市中山區八德路二段205號對面"
"b88d1055-fb0e-4082-8218-482200ea9c24","D0035","羅東光榮路車位(全聯旁)",5,1,"supernode",NULL,24.673592152867,121.77782515818,"宜蘭縣","羅東鎮","宜蘭縣羅東鎮光榮路156號"
"b8a41241-d847-400a-a4af-5ea65a291b20","F0113","品維美學牙醫診所",6,0,"lock",NULL,24.1818838,120.689307,"台中市","北屯區","台中市北屯區松竹路二段413號"
"b98c3428-afd8-4c95-a28a-f9c6eca73bc9","F0253","太平洋森之丘社區",28,0,"all",NULL,25.046413,121.589032,"台北市","南港區","台北市南港區東新街138號"
"ba0cf580-929b-4f28-b2d5-6ea1b0e24714","C0075","大安森林公園車位(近建國花市)",2,1,"lock",NULL,25.0345665,121.5367836,"台北市","大安區","台北市大安區新生南路一段161巷35-1號"
"ba3af695-f794-4db4-9c91-0902d612e8e5","D0166","魔髮部屋精誠車位",7,1,"lock",NULL,24.156261,120.656738,"台中市","西區","台中市西區精誠路9號"
"bad40e6f-5d0c-43ae-a7fe-9538de3dad17","B0205","國軍松山總醫院臨近車位",3,1,"lock",NULL,25.05341,121.558189,"台北市","松山區","台北市松山區南京東路五段23巷18號"
"bb22e41c-8b50-4c7c-a553-bf8f47d85b67","F0081","民權東路二段135巷車位",1,1,"lock",NULL,25.063116,121.534928,"台北市","中山區","台北市中山區民權東路二段113巷1弄13號"
"bb367c03-3494-4468-84e0-2de16d8fd4d8","D0255","一新一街停車位",1,0,"lock",NULL,24.174387713722,120.71380602769,"台中市","北屯區","台中市北屯區一新一街11號"
"bb6deec7-6bc7-4127-9e68-a31df83a1c44","F0338","陽信證券大樓後方車位",0,0,"lock",NULL,25.11342989207864,121.51187190940982,"台北市","北投區","台北市北投區石牌路一段82號"
"bd074495-4190-4457-80e9-2385931f9028","A0310","八德路四段車位",2,1,"lock",NULL,25.0502694,121.5681725,"台北市","松山區","台北市松山區八德路四段389巷29號"
"bd838b4e-4591-4c78-b25c-5381498d9740","B0054","永吉路巷弄車位",1,1,"lock",NULL,25.043157,121.569623,"台北市","信義區","台北市信義區永吉路30巷119弄32號1樓"
"bdd7996f-d3c4-4bf2-a708-5ac33a31068c","B0175","合江街73巷車位",1,1,"lock",NULL,25.058819,121.540047,"台北市","中山區","台北市中山區合江街73巷10號"
"be13ee88-bf63-4b14-a16c-acc9210b582c","B0170","電影主題公園鄰近車位",1,0,"lock",NULL,25.044099,121.502397,"台北市","萬華區","台北市萬華區康定路30巷3號"
"bef269bd-f68a-4b6b-9e5e-21438cf41af3","F0156","捷報逢田停車場",19,1,"subway",NULL,24.18325164279177,120.6446363708033,"台中市","西屯區","台中市西屯區福星北路15-1號"
"bf1471eb-819d-4bfd-af3b-11e7e1cb9ed9","A0057","信園社區車位(松仁路)",1,1,"lock",NULL,25.025595,121.569434,"台北市","信義區","台北市信義區松仁路253巷4號"
"bf7e7f19-01ef-4c1c-b59f-9373f03bf3bf","C0243","北投溫泉街車位(水美飯店旁)",4,1,"aiguard",NULL,25.135875,121.505144,"台北市","北投區","台北市北投區溫泉路65巷12-14號3樓"
"bfba25fe-7103-430b-aef8-5cbdab8e5a25","C0326","人人伊藤萬游泳學校車位",9,0,"supernode",NULL,24.228760514166,120.64824009769,"台中市","大雅區","台中市大雅區學府路452巷16號"
"c0a842a9-9dbf-4199-9567-6b98feb1c29d","E0216","USPACE安盛好樂停忠孝停車場",6,1,"subway",NULL,23.973767,121.606487,"花蓮縣","花蓮市","花蓮縣花蓮市忠孝街57號"
"c0cca388-5c37-4d54-af66-fb844f9e212b","B0141","永盛公園車位",5,1,"lock",NULL,25.058654,121.525036,"台北市","中山區","台北市中山區民生東路一段27巷11號"
"c0d5ded4-29d8-44c0-a832-95ae40cfc293","B0027","信義路地下車位 (低底盤車勿停)",10,1,"aiguard",NULL,25.033538,121.544543,"台北市","大安區","台北市大安區信義路四段23號旁"
"c10cd8f4-f218-4887-8d26-88b447feb5ab","G0141","特爾電力-桃園青埔超充站",2,0,"all",NULL,25.0096926,121.2139402,"桃園市","大園區","桃園市大園區青埔路二段30號"
"c1b6c7e3-9bf4-4a0f-b144-9578daf0c7e7","F0325","USPACE光復大廈平面車位",27,1,"supernode",NULL,25.040326770197893,121.55726021886882,"台北市","大安區","台北市大安區光復南路240巷1號"
"c1e8c4de-efab-4195-afc3-729789627fa1","C0377","宏泰交易二號廣場",122,1,"luckypa","microprogram",25.036518390878,121.56937671197,"台北市","信義區","台北市信義區松仁路97號"
"c1f63c98-95d7-4ea3-b46e-b9779879be2a","F0029","軒維小廚前方車位",1,1,"lock",NULL,25.0362077,121.5497431,"台北市","大安區","台北市大安區仁愛路四段112巷17號"
"c2709e43-aa1b-41df-8437-38f3a495212e","D0411","虹邦首都花園後方車位",2,1,"lock",NULL,25.059218,121.543616,"台北市","中山區","台北市中山區民生東路三段73巷11號"
"c27902a1-ab1f-48a9-848f-8a73f4c58390","A0060","東湖麥當勞車位",2,1,"supernode",NULL,25.0694379,121.6117905,"台北市","內湖區","台北市內湖區康寧路三段168號"
"c285c48c-9244-402c-802a-a807b0bde02e","C0304","Alife武昌街車梯車位",4,1,"elevator",NULL,25.0439381,121.5125261,"台北市","中正區","台北市中正區武昌街一段18號B2"
"c2d74e52-f3ac-4371-8d23-de7a60140f9e","F0104","南山新市園區H棟",1,0,"luckypa","microprogram",23.0793595,120.2975293,"台南市","新市區","台南市新市區三民街139號"
"c36f20bc-6c74-4cff-9527-20524e5f2385","D0232","國父紀念館西側車位",6,1,"supernode",NULL,25.038747,121.557131,"台北市","大安區","台北市大安區光復南路306號"
"c3892c82-dee2-490c-939f-0ab2cf24daac","C0339","SnowSensei幸福77車位",10,1,"subway",NULL,25.0493248,121.4628913,"新北市","新莊區","新北市新莊區幸福東路77號"
"c3a31aeb-378e-4caa-9ed0-c555009a5725","F0027","信義路四段巷內小小車位",1,1,"lock",NULL,25.033845647446977,121.55479474234143,"台北市","大安區","台北市大安區信義路四段265巷5弄7號"
"c3c9ce7b-41cd-4ede-aa72-7ce7fe4b9b0d","D0194","西屯區至善路車位",40,1,"supernode",NULL,24.1763052,120.6421101,"台中市","西屯區","台中市西屯區至善路121巷17號共享車位"
"c4556b3d-77ba-42ea-a3ac-85b5c7963c70","D0484","USPACE台北喜來登大飯店機械駐車塔",0,0,"luckypa","parkinsys",25.044460834049,121.52255092454,"台北市","中正區","台北市中正區忠孝東路一段12號"
"c46d28ff-c3ea-4e6e-aba5-7e0d8e279f08","D0280","USPACE倫敦科技大樓",101,1,"luckypa","cityparking",25.080992,121.56324,"台北市","內湖區","台北市內湖區堤頂大道二段409號"
"c476fe54-cfaf-4ce3-8ff2-361387929a12","E0267","市民大道六段(饒河街夜市旁)",1,1,"lock",NULL,25.049053,121.5763345,"台北市","信義區","台北市信義區市民大道六段220號"
"c4f14156-e249-42f2-b1a6-1fe659b62e03","C0259","MythOcean停車位",6,0,"supernode",NULL,24.14594104779,120.64271276874,"台中市","南屯區","台中市南屯區大觀路58號"
"c4f71b97-9bbb-473f-9750-52baaba12c35","B0094","八德路三段車位",1,0,"lock",NULL,25.0485603,121.5554285,"台北市","松山區","台北市松山區八德路三段155巷4弄4號"
"c507852c-3576-44b5-adb1-e202bbc6810a","A0196","蘆洲吉野家車位",2,1,"lock",NULL,25.0864993,121.4707535,"新北市","蘆洲區","新北市蘆洲區保和街17號"
"c55f566d-49e3-42af-86b5-8e88f076e123","D0539","長野足湯養身行館",1,0,"subway",NULL,24.179917150389,120.72036003639,"台中市","北屯區","台中市北屯區軍榮一街71號"
"c5680ae4-061c-47ab-b3fe-4bf525106863","D0540","板橋錢櫃精華車位",5,1,"lock",NULL,25.006285,121.45887,"新北市","板橋區","新北市板橋區大華街7號"
"c5a74e0d-e7d2-455a-9ae9-5a0dc62847e2","F0094","合江街20巷內車位",4,1,"lock",NULL,25.055206172081,121.53816256015,"台北市","中山區","台北市中山區合江街20巷31號旁"
"c5d9c19b-1138-4159-80d2-db331a482ed3","C0349","第芬妮機械月租車位",1,0,"elevator",NULL,25.062945416247,121.51683361288,"台北市","大同區","台北市大同區民權西路120號"
"c60a1e45-d2c9-4fa8-b45a-1e393e1e8e10","B0166","小班韓式右轉車位(延吉街131巷)",3,1,"lock",NULL,25.0431538,121.5543313,"台北市","大安區","台北市大安區延吉街131巷1弄"
"c673aaef-3607-479c-b18e-fb667ad2d02e","E0234","勝利七街精華車位",1,1,"lock",NULL,24.824907,121.028215,"新竹縣","竹北市","新竹縣竹北市勝利七街一段296號"
"c673fbc3-928a-4b08-b3a8-65400c0490d0","C0301","崇德九路精華車位 - 柵欄控制",1,0,"aiguard",NULL,24.1867095,120.6856877,"台中市","北屯區","台中市北屯區崇德九路441號"
"c68ebc1a-d4b6-4dfa-bcd8-4eca8095e4e0","D0059","客美多停車場(內側)",4,0,"lock",NULL,24.177758709263,120.63732404903,"台中市","西屯區","台中市西屯區黎明路三段257號"
"c738d753-392b-49c7-84c0-f835da1add98","D0120","饒河街夜市(沃瑪玉成站)",22,1,"supernode",NULL,25.0520401,121.5818242,"台北市","南港區","台北市南港區南港路三段290巷"
"c78cd296-b84a-49ce-8645-2e2c2b2832df","B0026","(轉租)捷運劍南路站臨近車位",2,0,"lock",NULL,25.085497,121.55407,"台北市","中山區","台北市中山區北安路805巷"
"c7a20748-7886-4184-a7ad-ace73eacd68f","E0244","華西街夜市鄰近車位",3,1,"lock",NULL,25.0393491,121.4992662,"台北市","萬華區","台北市萬華區西園路一段72巷2號"
"c80a347b-0602-424d-9353-06604a2b2faf","A0243","木柵國中鄰近車位",3,1,"supernode",NULL,24.986623,121.56768,"台北市","文山區","台北市文山區木柵路三段102巷16號"
"c812dadb-7e1c-419c-8609-abc5ec983f9b","C0342","潭子仁愛路共享車位",1,0,"lock",NULL,24.215169,120.709709,"台中市","潭子區","台中市潭子區仁愛路二段266號"
"c89595f2-ee62-4253-ad15-144b504dcac7","F0241","信義Joyce",0,1,"elevator",NULL,25.0491419,121.572543,"台北市","信義區","台北市信義區市民大道六段108號"
"c89691f9-fbb1-4164-9991-91be4cfc0652","D0227","一葉知秋華美西店",6,0,"lock",NULL,24.153821156102,120.65926646749,"台中市","西區","台中市西區華美街416號"
"c90cee0b-e3ab-4f2b-a4f9-a140d9b9bd82","D0078","江南街精華車位",1,1,"lock",NULL,25.0742774,121.5795019,"台北市","內湖區","台北市內湖區江南街71巷95號"
"c99d1a68-d4a2-427d-9df7-4000449458ff","E0313","桃園北新街停車場",6,1,"lock",NULL,24.997361,121.30857,"桃園市","桃園區","桃園市桃園區北新街91號"
"ca05f272-04d1-49c7-a0bd-584d44fa4f99","A0201","光復南路巷弄車位(42號)",2,1,"lock",NULL,25.0403829,121.5555262,"台北市","大安區","台北市大安區光復南路260巷42號"
"ca4e3060-0ca2-48cb-bb29-fe232320d1ef","G0151","USPACE中崙旗艦場",2,0,"lock",NULL,25.045440640058338,121.54039639384469,"台北市","中山區","台北市中山區八德路二段230號"
"ca726639-27b5-4dbd-9929-a42ccb4f3119","E0168","共享車位",2,1,"all",NULL,0,0,"台中市",NULL,NULL
"cb0ba1c1-f6d3-4cd2-845e-9ced428a0805","D0088","忠駝乙區社區車位(364巷)",29,1,"supernode",NULL,25.035381,121.560222,"台北市","信義區","台北市信義區基隆路一段364巷"
"cbe13dd0-10a0-4be9-b621-6f8067816f38","D0075","福龍街及民族路口共享車位",4,1,"lock",NULL,24.1456481,120.672744,"台中市","北區","台中市北區民族路334號"
"cc3a8ca9-d941-4be1-a3fb-bf21bc3575be","D0066","廈門街鄰近車位",3,1,"lock",NULL,25.022258,121.51737,"台北市","中正區","台北市中正區廈門街148-3號"
"cc607dc6-c60a-4c0a-96ee-a2592a59a4ef","E0076","光正街精華車位",1,1,"lock",NULL,25.017214,121.4627226,"新北市","板橋區","新北市板橋區光正街18號"
"ccf1f0eb-f299-4974-9373-444586236c7c","F0117","勝學路108巷鄰近車位",1,1,"lock",NULL,23.0031652,120.2315049,"台南市","永康區","台南市永康區勝學路108巷16號"
"cd1a5a9c-6b9e-4fe6-a306-1c92a0a5393d","G0055","合江街100巷技術車位",1,1,"lock",NULL,25.058501238528823,121.5378477869373,"台北市","中山區","台北市中山區合江街100巷27號"
"cd48dac9-4469-492f-93c6-06c3b20fdc47","D0116","美村路停車場",5,0,"lock",NULL,24.1276068,120.662302,"台中市","南區","台中市南區美村路二段120號"
"cd755af7-daa2-46e7-a4e3-9fc18bd33c63","D0490","光復南路精華車位(52號)",3,1,"lock",NULL,25.040325,121.555066,"台北市","大安區","台北市大安區光復南路260巷52號"
"cdbae5b5-68ac-4b7d-a03d-94ba7f60d310","E0159","林森華國車位(25巷)",5,1,"lock",NULL,25.066163928312058,121.52532686479137,"台北市","中山區","台北市中山區雙城街25巷11號"
"ce14a09f-e2c4-4baa-a2d1-69df41908692","C0054","士林華榮市場車位(宏達合作)",3,1,"supernode",NULL,25.0980726,121.5243147,"台北市","士林區","台北市士林區後街7巷2號"
"cea7acba-d981-4faa-9ded-e8e214995372","D0071","新竹中油愛買",1,0,"all",NULL,24.8036163,120.9929869,NULL,"東區",NULL
"cf2aa857-19d9-417d-bd2b-645e22c7e371","E0266","忠孝復興精華車位",2,1,"lock",NULL,25.04094608332147,121.54528762650587,"臺北市","大安區","臺北市大安區大安路一段84巷8號"
"cf4729e2-0fa7-43d7-8fca-60711d3edc08","E0128","佑全藥局車位(瀋陽路側)",6,1,"lock",NULL,24.172382,120.694272,"台中市","北屯區","台中市北屯區興安路一段253號"
"d02f71b3-60c1-4218-ba65-6e839a334d50","C0320","梅川東篤信精華車位",6,1,"lock",NULL,24.1504998,120.6719576,"台中市","西區","台中市西區梅川東路二段15號"
"d0f9bf2c-a89d-4364-9933-31b3e97176e0","B0298","延吉街車位(全聯前方)",4,1,"lock",NULL,25.043671,121.554308,"台北市","大安區","台北市大安區延吉街131巷1弄"
"d157bfe8-92d7-4cfb-8737-a78682df3496","F0166","中央路291巷",13,1,"supernode",NULL,24.839749,120.998341,"新竹縣","竹北市","新竹縣竹北市中央路291巷"
"d16f8ee7-ef16-4e07-8558-581758ad81a0","F0168","汐止茄苳路停車場",58,1,"luckypa","microprogram",25.07073936087631,121.6650329201197,"新北市","汐止區","新北市汐止區茄苳路13號對面"
"d1c31788-72b9-488a-90e7-774ad2dfe87c","E0134","辛亥BOSIC精華車位",2,1,"lock",NULL,25.021667,121.539608,"台北市","大安區","台北市大安區辛亥路二段135號"
"d1dfcc1a-44d0-454a-9285-078acebf10da","B0289","鑫盟汽車車位(南港路)",1,0,"lock",NULL,25.053378,121.602813,"台北市","南港區","台北市南港區南港路二段41巷25-1號"
"d1e6c308-5d3c-47e0-886d-6b35d6ba498d","E0202","USPACE萬豪酒店",402,1,"luckypa","parkinsys",25.0804289,121.5592994,"台北市","中山區","台北市中山區樂群二路199號"
"d1edb765-c2d5-440f-9d84-741fe5d738ae","C0329","新莊明智街車位",0,1,"lock",NULL,25.0412659,121.4540387,"新北市","新莊區","新北市新莊區明智街21巷1號"
"d1efcd03-d512-436b-887a-cc212c96792a","D0381","USPACE新豐山崎站",1,1,"subway",NULL,24.869608332484,120.99406413784,"新竹縣","新豐鄉","新竹縣新豐鄉泰安街41號旁"
"d1f6328e-70a9-4244-8a34-f6c711d1cfae","F0122","勝利九街精華車位",8,1,"lock",NULL,24.824966,121.0299179,"新竹縣","竹北市","新竹縣竹北市勝利九街88號"
"d28d82aa-d430-4d75-aaa8-04bbbe444f82","F0201","南港仙聖宮旁車位",5,1,"lock",NULL,25.03772,121.617112,"台北市","南港區","台北市南港區研究院路二段"
"d2fec98c-c5d3-4dac-9482-2134a6e4d402","D0128","湖光國宅253巷車位",2,1,"lock",NULL,25.0751735,121.5786072,"台北市","內湖區","台北市內湖區瑞光路253巷32號"
"d3414ae3-3d29-4835-b256-fae7b4ee540b","D0036","SCI瑞光大樓",156,1,"luckypa","cityparking",25.080426196242,121.56746957141,"台北市","內湖區","台北市內湖區基湖路3巷47號"
"d349e937-e051-4dba-a36a-7eccc08687e1","G0018","欣寬向上路",11,1,"lock",NULL,24.1448671,120.6253378,"台中市","南屯區","台中市南屯區向上路三段497號"
"d39bfe86-d990-4689-a839-582fd5a6b3fc","D0115","南山人壽干城大樓",37,1,"luckypa","microprogram",24.141898,120.687555,"台中市","東區","台中市東區公園東路130號"
"d3cf040f-daa2-42af-a6e3-0bb919600dff","B0181","七條通鄰近車位",4,1,"supernode",NULL,25.0503745,121.5280057,"台北市","中山區","台北市中山區新生北路一段112號"
"d47b0de2-740f-4a62-a318-809d484e00fc","F0079","大巨蛋鄰近車位（光復南路45巷）",7,1,"supernode",NULL,25.046247124877446,121.55818545712607,"台北市","松山區","台北市松山區光復南路35號"
"d51d5e2e-6a4c-4fec-9a03-0fe27729d6f5","B0101","中和中山路車位",1,0,"lock",NULL,25.0079,121.500305,"新北市","中和區","新北市中和區中山路二段2巷"
"d5630cdc-654b-4e52-b0ce-04c3c98998a3","C0151","紘緯德富路車位",0,1,"lock",NULL,24.111041,120.66082,"台中市","南區","台中市南區德富路496號旁"
"d585fb03-12c6-42e4-a253-a6b1dd6344ab","G0003","台中大墩七街",4,1,"lock",NULL,24.1441777,120.641313,"台中市","南屯區","台中市南屯區大墩七街475號"
"d59d164f-2f35-4234-8340-a1f8e4989b56","B0255","捷運七張站車位(北新路)",3,1,"lock",NULL,24.976562,121.543004,"新北市","新店區","新北市新店區北新路二段190號"
"d5df85fa-4c93-427c-bf14-6d7038007218","D0004","潮境公園停車場",33,1,"luckypa","microprogram",25.14285289292431,121.8025270682763,"基隆市","中正區","基隆市中正區北寧路369巷45號"
"d6751fca-32d6-4b3b-9a5e-9b29ec579a8a","B0297","西門國賓車梯車位",5,1,"elevator",NULL,25.042647,121.50504,"台北市","萬華區","台北市萬華區成都路76巷B2"
"d6a80e54-2c54-4e09-8315-223ba5001a59","A0209","大安國小車位",5,1,"lock",NULL,25.020338,121.548816,"台北市","大安區","台北市大安區臥龍街129號"
"d6e8ddad-50e1-4d85-a41d-06c56393db18","E0233","光啓福音站",8,1,"supernode",NULL,25.040337418679,121.54970403634,"台北市","大安區","台北市大安區敦化南路一段233巷20號"
"d745f242-41e9-4407-a7d8-ba47f0a9163d","B0160","雙城街車位",4,1,"supernode",NULL,25.0655,121.525316,"台北市","中山區","台北市中山區雙城街19巷21號"
"d7af9b1d-816a-469d-b983-7e8a4eac80c3","D0193","天母築萃社區",2,1,"luckypa",NULL,25.1017241,121.5236515,"台北市","士林區","台北市士林區福國路57號"
"d7fe29c0-97b2-4caa-9045-18344b99273c","C0375","埔心鄉員鹿路五段停車場",14,1,"luckypa","microprogram",23.9513841,120.5140815,"彰化縣","埔心鄉","彰化縣埔心鄉員鹿路五段333號旁邊"
"d825954c-294d-44e7-99f4-4ad1b07ca954","C0042","南雅西路一段31巷車位",4,1,"lock",NULL,25.004221,121.453269,"新北市","板橋區","新北市板橋區南雅西路一段31巷"
"d8431182-167b-418e-8584-ecb9e22287d3","E0218","健康路精華車位",6,1,"supernode",NULL,22.981775341993803,120.19071350299872,"台南市","南區","台南市南區健康路二段240號"
"d86d0400-4848-4e89-aa02-20132bd8b026","G0015","新莊典華幸福大樓",70,1,"luckypa","microprogram",25.0570717,121.4467785,"新北市","新莊區","新北市新莊區中央路469號"
"d8d0b25f-fc39-40f9-b849-fcdf4ee1607f","D0023","聚鑫行銷前車位",2,1,"lock",NULL,25.039047333418,121.5445896,"台北市","大安區","台北市大安區復興南路一段219巷9號"
"d8d5c57d-cecd-43bb-8e82-0a38eb000193","F0249","永和街精華車位",2,1,"lock",NULL,24.126142,120.6737836,"台中市","南區","台中市南區永和街206巷3號"
"d8d940b8-b45d-4fcc-98d8-ac420fb26cc8","E0112","QMotel鄰近車位",4,1,"lock",NULL,24.9898164,121.4444126,"新北市","土城區","新北市土城區中華路一段56巷26號"
"d9680e9d-ea3f-4133-be75-1aac370d0f39","D0129","迦樂悅 素食餐廳",4,1,"supernode",NULL,24.1489234,120.6527672,"台中市","南屯區","台中市南屯區東興路三段131號"
"d96f2b10-88c8-4f7a-8dd6-648e4d5c739e","C0093","中央路地下停車場",6,1,"subway",NULL,24.067785,120.527033,"彰化縣","彰化市","彰化縣彰化市中央路270號"
"d9c9e835-8ef4-4652-92ab-2c74557d1ae0","B0034","市政府捷運站臨近車位(柵欄內)",2,0,"aiguard",NULL,25.041553598104,121.56643082722,"台北市","信義區","台北市信義區忠孝東路五段31巷18弄17號"
"da177267-c334-422d-8933-a2df7b693dc0","E0103","紅樓精緻鐵板燒車位",1,1,"lock",NULL,25.086651,121.460563,"新北市","蘆洲區","新北市蘆洲區光明路3號"
"da46f7a4-dc7a-4323-ad95-513f88f22c4e","D0164","海科館調和街轉運站",999,1,"luckypa","microprogram",25.12438609534,121.79854769192,"新北市","瑞芳區","新北市瑞芳區逢甲路436號"
"da528e24-66fc-4732-a339-a2a4414eb2fd","C0282","朝貴公園鄰近車位(金鴻興)",4,0,"lock",NULL,24.1710275,120.6350563,"台中市","西屯區","台中市西屯區朝貴一街98號"
"daf1400f-6a9c-440a-ba23-c994210e877c","C0328","新莊中港小北百貨",31,1,"luckypa","microprogram",25.0417457,121.4547868,"新北市","新莊區","新北市新莊區中港路199號"
"dbaa937d-814c-4e59-8802-a39813833dc2","D0118","汐止工建路場",5,1,"lock",NULL,25.0632132,121.6379653,"新北市","汐止區","新北市汐止區工建路153號"
"dbe53cbd-6e13-4871-8e7b-8a91588c7b22","A0259","復興南路精華車位",1,1,"lock",NULL,25.0276859,121.5427958,"台北市","大安區","台北市大安區復興南路二段160巷8號"
"dc899132-d196-411d-9e36-00a57b664c64","E0272","光正文化車位",2,1,"lock",NULL,25.017192233068,121.4630280751,"新北市","板橋區","新北市板橋區光正街12號"
"dcb6bd36-7130-4d9d-be63-513d6875cbb1","F0285","嘉義順天宮旁停車位",6,0,"supernode",NULL,23.481562,120.443637,"嘉義市","西區","嘉義市西區林森西路452號"
"dcc0f300-725e-4932-ad78-f3aae94b47f1","F0170","鎮三街二場",7,1,"lock",NULL,25.000063,121.315745,"桃園市","桃園區","桃園市桃園區鎮三街88號"
"dce5dd6c-0daf-4f5d-a20f-7482eff7cda7","F0322","USPACE青年一期社會住宅地下停車場",298,1,"luckypa","microprogram",25.020227784487123,121.50367968429407,"台北市","萬華區","台北市萬華區青年路186-1號"
"dd7452de-e52f-4a70-a8da-84b163df1b05","F0324","東明路停車場",4,0,"supernode",NULL,24.11336,120.686999,"台中市","大里區","台中市大里區東明路103號對面"
"de13174a-c042-4568-a677-bcfc935891a0","E0273","彰化溪湖二溪路停車位(田中路側)",4,0,"supernode",NULL,23.959319,120.474537,"彰化縣","溪湖鎮","彰化縣溪湖鎮二溪路一段219號"
"de44995a-a457-423a-965c-22b8c8803085","G0072","建成大廈三場",6,1,"supernode",NULL,25.040988,121.550751,"台北市","大安區","台北市大安區忠孝東路四段168號後方空地"
"defcc219-8ee0-45dc-96d5-733c972cde4b","A0215","政大公企中心鄰近車位",1,1,"lock",NULL,25.029011,121.527358,"台北市","大安區","台北市大安區金山南路二段159巷18號"
"df12f509-245c-44ab-94fb-199114bcb7cd","E0290","中研公園鄰近車位",1,1,"lock",NULL,25.048534,121.614161,"台北市","南港區","台北市南港區研究院路二段2巷26號"
"df2bd9c2-646a-4e4f-ad6e-dd7630fa443d","D0376","中正區中華月租車位",0,1,"all",NULL,25.025591,121.50957,"台北市","中正區","台北市中正區中華路二段441巷6弄5號"
"df30594c-7ae8-48ab-9540-a507f1c3271a","D0005","南區大客車停車場",41,1,"luckypa","microprogram",25.139758,121.798391,"基隆市","中正區","基隆市中正區北寧路446號"
"df464800-f519-45d9-a7aa-1e722e3c7ffb","D0136","文心維格診所車位",7,1,"lock",NULL,24.1529907,120.6454124,"台中市","南屯區","台中市南屯區大福街36號"
"df475d99-7486-420b-938c-3a9e32d1f984","B0046","忠駝乙區社區車位(380巷)",34,1,"supernode",NULL,25.0345296,121.5594231,"台北市","信義區","台北市信義區基隆路一段380巷"
"dfbcc2d1-85a9-48d4-8315-c7df76b6b571","D0298","松隆虎林街3020車位",2,1,"lock",NULL,25.047661,121.57592,"台北市","信義區","台北市信義區虎林街30巷20號"
"e0205814-6f55-4538-a7ec-3c819157cd47","C0276","敦化國中鄰近車梯車位",4,1,"elevator",NULL,25.052391881335,121.54687131361,"台北市","松山區","台北市松山區南京東路三段303巷6弄1號B1"
"e054a9c9-bfbb-4101-98c2-0d60a7743037","A0217","復興南路車位(小李子對面)",4,1,"lock",NULL,25.0292361,121.5436695,"台北市","大安區","台北市大安區復興南路二段119號"
"e05747da-9144-4bfe-b401-2b08492475aa","A0291","逸仙路地下車位(車高限1.65M內)",5,1,"aiguard",NULL,25.040461758378,121.5626024273,"台北市","信義區","台北市信義區逸仙路50巷20號"
"e081a780-c272-4936-81dd-5e253403b3e9","F0126","USPACE中山南西場(汽車)",47,1,"luckypa","microprogram",25.0515026,121.5207889,"台北市","中山區","台北市中山區中山北路140巷49號旁"
"e0ceb88f-af0b-4c93-a4ec-b2ba5aef3ed7","E0109","竹北享平方B1停車場",6,1,"supernode",NULL,24.8194738,121.0265959,"新竹縣","竹北市","新竹縣竹北市自強七街33號"
"e109b5b9-63c5-4074-bcf8-30aedb5982a0","E0001","紘緯南屯德順車位",9,1,"subway",NULL,24.134777,120.6554909,"台中市","南屯區","台中市南屯區南屯路二段1-1號旁"
"e14c8cb4-a14f-4707-84ff-6a0aa0eb3fb7","A0064","刑事警察局車位",1,1,"lock",NULL,25.0423148,121.5628249,"台北市","信義區","台北市信義區忠孝東路四段553巷6弄1號"
"e155bc6b-5504-417e-bde9-00df604d7768","D0031","海洋劇場停車場",280,1,"luckypa","microprogram",25.139957,121.797923,"基隆市","中正區","基隆市中正區北寧路367號"
"e1e2be35-8889-4930-b390-d475fa3fb4d2","G0068","新竹埔頂撥筋堂車位",6,1,"subway",NULL,24.791960783575057,121.01717394117198,"新竹市","東區","新竹市東區埔頂路"
"e28a7914-e7df-452b-91ad-a9799ec38972","D0111","東方麒麟社區B4月租車位",0,1,"subway",NULL,25.040360730187,121.58152254218,"台北市","信義區","台北市信義區林口街176-182號"
"e2c32300-1d53-4f6a-8109-fab612d8cd4d","F0176","USPACE市民復興停車場",9,1,"supernode",NULL,25.04448554479685,121.54218593877881,"台北市","大安區","台北市大安區安東街24-1號"
"e2c53286-48cc-4583-a855-a4d11f756c5d","F0096","林口仁愛停車場",42,1,"luckypa","microprogram",25.076283,121.388339,"新北市","林口區","新北市林口區仁愛路一段637巷"
"e2e9f35d-d9f6-46da-8f16-93944349dcad","C0306","台灣菸酒桃園酒廠月租車位",1,0,"aiguard",NULL,25.0557116,121.3743644,"桃園市","龜山區","桃園市龜山區復興二路75巷20弄"
"e355fc85-4c61-442e-a611-23b86c617f37","C0283","太平大興13街車位",0,1,"lock",NULL,24.15410469919,120.73033068199,"台中市","太平區","台中市太平區大興十三街93巷13號對面"
"e3b9a36f-7eac-4995-9d49-2c0251cf4750","G0024","中正博愛路月租車位",0,1,"subway",NULL,25.043691861997697,121.511632502089,"台北市","中正區","台北市中正區博愛路"
"e3ce0d6f-3704-43c2-bc05-c541d95cccc2","F0120","西門國泰世紀平面車位",12,1,"lock",NULL,25.0441177,121.5021993,"台北市","萬華區","台北市萬華區康定路30巷167號"
"e5bab7b1-a43e-4843-ace7-262574d24b23","E0013","黎明米撰旁停車位",3,1,"subway",NULL,24.143297,120.637511,"台中市","南屯區","台中市南屯區黎明路二段30號"
"e676b42b-6a36-4205-9112-7e4488aec244","B0281","德惠街精華車位",2,1,"lock",NULL,25.066695,121.532683,"台北市","中山區","台北市中山區德惠街193巷133號"
"e685c75e-0d0a-4f76-932e-a95676521521","D0468","忠孝公園地下B1車位",1,1,"aiguard",NULL,25.04212,121.53181,"台北市","中正區","台北市中正區忠孝東路二段130號"
